Station Code,Station Name,Country,State,Latitude,Longitude,Elevation,Start,End,Timezone UTC,Timezone Name,Source,Wind Direction,Wind Speed,Wind Gust,Sea Level Pressure,Dry Bulb Temperature,Wet Bulb Temperature,Relative Humidity,Rain,Rain Intensity,Cloud Oktas,Mean Correction Factors
00826899999,WXPOD8278,Afghanistan,,32.95,65.567,1156.7,19/05/2010,23/03/2012,UTC +04:30,Asia/Kabul,NOAA,,,,,,,,,,,
01001099999,JAN MAYEN(NOR-NAVY),Norway,,70.933,-8.667,9.0,01/01/1931,31/01/2023,UTC +01:00,Arctic/Longyearbyen,NOAA,,,,,,,,,,,
01001499999,SORSTOKKEN,Norway,,59.792,5.341,48.8,20/11/1986,31/01/2023,UTC +01:00,Europe/Oslo,NOAA,,,,,,,,,,,
01001599999,BRINGELAND,Norway,,61.383,5.867,327.0,17/01/1987,31/12/1997,UTC +01:00,Europe/Oslo,NOAA,,,,,,,,,,,
01001699999,RORVIK/RYUM,Norway,,64.85,11.233,14.0,16/01/1987,06/08/1991,UTC +01:00,Europe/Oslo,NOAA,,,,,,,,,,,
01001799999,FRIGG,Norway,,59.98,2.25,48.0,20/03/1988,26/12/1997,UTC +00:00,Etc/GMT,NOAA,,,,,,,,,,,
01002099999,VERLEGENHUKEN,Norway,,80.05,16.25,8.0,09/11/1986,30/01/2023,UTC +01:00,Arctic/Longyearbyen,NOAA,,,,,,,,,,,
01003099999,HORNSUND,Norway,,77.0,15.5,12.0,01/06/1985,30/01/2023,UTC +01:00,Arctic/Longyearbyen,NOAA,,,,,,,,,,,
01004099999,NY-ALESUND II,Norway,,78.917,11.933,8.0,01/01/1973,01/08/1997,UTC +01:00,Arctic/Longyearbyen,NOAA,,,,,,,,,,,
01005099999,ISFJORD RADIO,Svalbard,,78.067,13.633,9.0,03/01/1931,30/10/2004,UTC +01:00,Arctic/Longyearbyen,NOAA,,,,,,,,,,,
01006099999,EDGEOYA,Norway,,78.25,22.817,14.0,01/01/1973,30/01/2023,UTC +01:00,Arctic/Longyearbyen,NOAA,,,,,,,,,,,
01007099999,NY-ALESUND,Svalbard,,78.917,11.933,7.7,06/01/1973,31/01/2023,UTC +01:00,Arctic/Longyearbyen,NOAA,,,,,,,,,,,
01007199999,LONGYEARBYEN,Svalbard,,78.217,15.583,37.0,10/02/2005,10/02/2005,UTC +01:00,Arctic/Longyearbyen,NOAA,,,,,,,,,,,
01008099999,LONGYEAR,Svalbard,,78.246,15.466,26.8,29/09/1975,31/01/2023,UTC +01:00,Arctic/Longyearbyen,NOAA,,,,,,,,,,,
01009099999,KARL XII OYA,Svalbard,,80.65,25.0,5.0,01/01/1955,25/01/2023,UTC +01:00,Arctic/Longyearbyen,NOAA,,,,,,,,,,,
01010099999,ANDOYA,Norway,,69.293,16.144,13.1,03/01/1931,31/01/2023,UTC +01:00,Europe/Oslo,NOAA,,,,,,,,,,,
01011099999,KVITOYA,Svalbard,,80.067,31.5,10.0,18/11/1986,30/01/2023,UTC +01:00,Arctic/Longyearbyen,NOAA,,,,,,,,,,,
01014099999,SENJA-LAUKHELLA,Norway,,69.233,17.9,9.0,01/01/1973,23/05/2014,UTC +01:00,Europe/Oslo,NOAA,,,,,,,,,,,
01015099999,HEKKINGEN FYR,Norway,,69.6,17.833,14.0,14/03/1980,31/01/2023,UTC +01:00,Europe/Oslo,NOAA,,,,,,,,,,,
01016099999,KONGSOYA,Norway,,78.933,28.9,20.0,01/05/1993,26/01/2023,UTC +01:00,Arctic/Longyearbyen,NOAA,,,,,,,,,,,
01017099999,AKSELOYA,Svalbard,,77.683,14.783,6.0,01/01/1973,28/01/2023,UTC +01:00,Arctic/Longyearbyen,NOAA,,,,,,,,,,,
01017199999,GIBOSTAD,Norway,,69.35,18.083,12.0,16/02/2005,07/03/2007,UTC +01:00,Europe/Oslo,NOAA,,,,,,,,,,,
01019099999,SVARTTANGEN,Norway,,77.517,20.817,20.0,25/08/2010,23/05/2014,UTC +01:00,Arctic/Longyearbyen,NOAA,,,,,,,,,,,
01020099999,SORKAPPOYA,Svalbard,,76.483,16.55,10.0,08/10/2010,31/01/2023,UTC +01:00,Arctic/Longyearbyen,NOAA,,,,,,,,,,,
01023099999,BARDUFOSS,Norway,,69.056,18.54,76.8,13/07/1940,31/01/2023,UTC +01:00,Europe/Oslo,NOAA,,,,,,,,,,,
01023199999,DRAUGEN,Norway,,64.35,7.8,0.0,10/05/2004,31/01/2023,UTC +01:00,Etc/GMT-1,NOAA,,,,,,,,,,,
01024099999,PYRAMIDEN,Norway,,78.65,16.367,20.0,01/01/1973,27/01/2023,UTC +01:00,Arctic/Longyearbyen,NOAA,,,,,,,,,,,
01025099999,TROMSO,Norway,,69.683,18.919,9.4,01/01/1973,31/01/2023,UTC +01:00,Europe/Oslo,NOAA,,,,,,,,,,,
01026099999,TROMSO,Norway,,69.65,18.933,114.5,01/02/1997,31/01/2023,UTC +01:00,Europe/Oslo,NOAA,,,,,,,,,,,
01027099999,TROMSO-HOLT,Norway,,69.65,18.9,20.0,28/09/2011,31/01/2023,UTC +01:00,Europe/Oslo,NOAA,,,,,,,,,,,
01028099999,BJORNOYA ISLAND,Norway,,74.517,19.017,18.0,03/01/1931,31/01/2023,UTC +01:00,Arctic/Longyearbyen,NOAA,,,,,,,,,,,
01030099999,KISTEFJELL,Norway,,69.283,18.133,982.0,01/01/1951,13/01/2023,UTC +01:00,Europe/Oslo,NOAA,,,,,,,,,,,
01030399999,TROMSO/SKATTURA,Norway,,69.7,19.017,14.0,22/05/2014,08/01/2015,UTC +01:00,Europe/Oslo,NOAA,,,,,,,,,,,
01032099999,OVERBYGD,Norway,,69.017,19.283,78.0,01/01/1973,23/05/2014,UTC +01:00,Europe/Oslo,NOAA,,,,,,,,,,,
01033099999,TORSVAG FYR,Norway,,70.25,19.5,24.0,01/01/1973,28/01/2023,UTC +01:00,Europe/Oslo,NOAA,,,,,,,,,,,
01034099999,FUGLOYKALVEN FYR,Norway,,70.317,20.15,38.0,02/12/1987,31/12/1997,UTC +01:00,Europe/Oslo,NOAA,,,,,,,,,,,
01035099999,LYNGEN GJERDVASSBU,Norway,,69.567,20.1,710.0,01/01/1973,13/01/2023,UTC +01:00,Europe/Oslo,NOAA,,,,,,,,,,,
01036099999,NORDNESFJELLET,Norway,,69.567,20.433,710.0,10/05/2004,03/11/2022,UTC +01:00,Europe/Oslo,NOAA,,,,,,,,,,,
01036199999,SKIBOTIN,Norway,,69.367,20.267,5.0,16/09/2005,22/09/2005,UTC +01:00,Europe/Oslo,NOAA,,,,,,,,,,,
01037099999,SKIBOTN 2,Norway,,69.383,20.283,20.0,01/01/1973,24/01/2023,UTC +01:00,Europe/Oslo,NOAA,,,,,,,,,,,
01040099999,SKJERVOY,Norway,,70.033,20.983,15.0,01/01/1973,27/09/1978,UTC +01:00,Europe/Oslo,NOAA,,,,,,,,,,,
01041099999,NORDREISA-OYENG,Norway,,69.733,21.017,5.0,01/01/1973,14/12/1997,UTC +01:00,Europe/Oslo,NOAA,,,,,,,,,,,
01042099999,HASVIK-SLUSKFJELLET,Norway,,70.6,22.45,438.0,17/09/2008,12/01/2023,UTC +01:00,Europe/Oslo,NOAA,,,,,,,,,,,
01043099999,ROGNSUNDET,Norway,,70.417,22.817,10.0,01/01/1973,12/01/2023,UTC +01:00,Europe/Oslo,NOAA,,,,,,,,,,,
01043199999,LOPPA,Norway,,70.333,21.467,11.0,07/02/2006,07/03/2007,UTC +01:00,Europe/Oslo,NOAA,,,,,,,,,,,
01043599999,HASVIK,Norway,,70.483,22.15,7.0,15/05/1975,31/12/1997,UTC +01:00,Europe/Oslo,NOAA,,,,,,,,,,,
01044099999,HASVIK,Norway,,70.487,22.14,6.4,02/01/2005,31/01/2023,UTC +01:00,Europe/Oslo,NOAA,,,,,,,,,,,
01045099999,NORDSTRAUM I KVAENANGEN,Norway,,69.833,21.883,6.0,01/01/1973,31/01/2023,UTC +01:00,Europe/Oslo,NOAA,,,,,,,,,,,
01046099999,SORKJOSEN,Norway,,69.787,20.959,4.9,05/09/1975,31/01/2023,UTC +01:00,Europe/Oslo,NOAA,,,,,,,,,,,
01047099999,KAUTOKEINO II,Norway,,69.017,23.067,307.0,01/01/1973,15/01/2023,UTC +01:00,Europe/Oslo,NOAA,,,,,,,,,,,
01049099999,ALTA,Norway,,69.976,23.372,2.7,01/01/1973,31/01/2023,UTC +01:00,Europe/Oslo,NOAA,,,,,,,,,,,
01051099999,SUOLOVUOPMI,Norway,,69.583,23.533,374.0,02/01/1973,23/05/2014,UTC +01:00,Europe/Oslo,NOAA,,,,,,,,,,,
01052099999,HAMMERFEST AP,Norway,,70.683,23.683,81.0,08/10/1940,31/01/2023,UTC +01:00,Europe/Oslo,NOAA,,,,,,,,,,,
01053099999,HAMMERFEST RADIO,Norway,,70.683,23.683,70.0,01/01/1973,26/12/1987,UTC +01:00,Europe/Oslo,NOAA,,,,,,,,,,,
01055099999,FRUHOLMEN FYR,Norway,,71.1,23.983,14.2,01/01/1931,31/01/2023,UTC +01:00,Europe/Oslo,NOAA,,,,,,,,,,,
01057099999,CUOVDDATMOHKKI,Norway,,69.367,24.433,286.0,01/01/1973,31/01/2023,UTC +01:00,Europe/Oslo,NOAA,,,,,,,,,,,
01058099999,SUOLOVUOPMI LULIT,Norway,,69.567,23.533,381.0,18/02/2005,24/01/2023,UTC +01:00,Europe/Oslo,NOAA,,,,,,,,,,,
01059099999,BANAK,Norway,,70.069,24.973,7.6,01/01/1973,31/01/2023,UTC +01:00,Europe/Oslo,NOAA,,,,,,,,,,,
01061099999,BRENNELV,Norway,,70.067,25.117,34.0,01/01/1973,07/07/1984,UTC +01:00,Europe/Oslo,NOAA,,,,,,,,,,,
01062099999,HOPEN ISLAND,Norway,,76.5,25.067,10.0,01/01/1955,31/01/2023,UTC +01:00,Arctic/Longyearbyen,NOAA,,,,,,,,,,,
01063099999,KISTRAND III,Norway,,70.45,25.217,6.0,01/01/1973,15/07/1987,UTC +01:00,Europe/Oslo,NOAA,,,,,,,,,,,
01065099999,KARASJOK,Norway,,69.467,25.517,133.0,01/01/1973,28/01/2023,UTC +01:00,Europe/Oslo,NOAA,,,,,,,,,,,
01066099999,HELNES FYR,Norway,,71.067,26.233,33.0,01/01/1973,19/06/2004,UTC +01:00,Europe/Oslo,NOAA,,,,,,,,,,,
01067099999,LEVAJOK-EVJEN,Norway,,69.9,26.417,112.0,03/01/1973,24/09/1982,UTC +02:00,Europe/Helsinki,NOAA,,,,,,,,,,,
01067199999,LEVAJOK-EVJEN,Norway,,69.9,26.417,112.0,07/03/2007,07/03/2007,UTC +02:00,Europe/Helsinki,NOAA,,,,,,,,,,,
01068099999,HONNINGSVAG/VALAN,Norway,,71.017,25.983,14.0,04/06/1980,31/01/2023,UTC +01:00,Europe/Oslo,NOAA,,,,,,,,,,,
01074099999,MEHAMN,Norway,,71.033,27.833,13.0,05/09/1975,31/01/2023,UTC +01:00,Europe/Oslo,NOAA,,,,,,,,,,,
01075099999,RUSTEFJELBMA,Norway,,70.4,28.2,11.2,01/01/1973,31/12/1997,UTC +01:00,Europe/Oslo,NOAA,,,,,,,,,,,
01076099999,TANABRU,Norway,,70.217,28.167,32.0,21/11/2012,31/01/2023,UTC +01:00,Europe/Oslo,NOAA,,,,,,,,,,,
01078099999,SLETTNES FYR,Norway,,71.1,28.233,10.0,01/01/1973,15/01/2023,UTC +01:00,Europe/Oslo,NOAA,,,,,,,,,,,
01082099999,NYRUD,Norway,,69.15,29.25,56.0,19/09/1973,31/01/2023,UTC +01:00,Europe/Oslo,NOAA,,,,,,,,,,,
01083099999,BERLEVAG,Norway,,70.867,29.033,13.0,05/09/1975,31/01/2023,UTC +01:00,Europe/Oslo,NOAA,,,,,,,,,,,
01084099999,PASVIK,Norway,,69.45,30.033,27.0,01/01/1973,31/01/2023,UTC +01:00,Europe/Oslo,NOAA,,,,,,,,,,,
01085099999,BUGOYFJORD,Norway,,69.85,29.417,8.0,01/01/1973,08/10/1978,UTC +01:00,Europe/Oslo,NOAA,,,,,,,,,,,
01086099999,BATSFJORD,Norway,,70.6,29.693,149.4,01/01/2005,31/01/2023,UTC +01:00,Europe/Oslo,NOAA,,,,,,,,,,,
01087599999,HEIMDAL OIL PLATFORM,Norway,,59.567,2.217,90.0,01/01/2011,31/01/2023,UTC +00:00,Etc/GMT,NOAA,,,,,,,,,,,
01087699999,NORNE OIL PLATFORM,Norway,,66.017,8.083,90.0,01/01/2011,31/01/2023,UTC +01:00,Etc/GMT-1,NOAA,,,,,,,,,,,
01087799999,TROLL A  OIL PLATFORM,Norway,,60.633,3.717,90.0,01/01/2011,31/01/2023,UTC +00:00,Etc/GMT,NOAA,,,,,,,,,,,
01087899999,SNORRE A  OIL PLATFORM,Norway,,61.45,2.133,90.0,01/01/2011,31/01/2023,UTC +00:00,Etc/GMT,NOAA,,,,,,,,,,,
01087999999,SNORRE B  OIL PLATFORM,Norway,,61.533,2.2,90.0,01/01/2011,31/01/2023,UTC +00:00,Etc/GMT,NOAA,,,,,,,,,,,
01088099999,VADSO,Norway,,70.067,29.85,39.0,05/09/1975,31/01/2023,UTC +01:00,Europe/Oslo,NOAA,,,,,,,,,,,
01088199999,NARVIK III/FRAMNES,Norway,,68.467,17.5,23.0,01/01/2008,31/12/2008,UTC +01:00,Europe/Oslo,NOAA,,,,,,,,,,,
01088299999,ROROS,Norway,,62.578,11.342,626.1,02/01/2005,31/01/2023,UTC +01:00,Europe/Oslo,NOAA,,,,,,,,,,,
01088399999,SANDANE/ANDA,Norway,,61.833,6.117,60.0,01/01/2008,31/12/2008,UTC +01:00,Europe/Oslo,NOAA,,,,,,,,,,,
01088499999,GEITERYGGEN,Norway,,59.185,9.567,141.1,03/01/2005,09/11/2015,UTC +01:00,Europe/Oslo,NOAA,,,,,,,,,,,
01088599999,BATSFJORD,Norway,,70.6,29.733,153.0,18/07/1994,30/12/1997,UTC +01:00,Europe/Oslo,NOAA,,,,,,,,,,,
01088699999,SLEIPNER A OIL PLATFORM,Norway,,58.367,1.9,30.0,01/02/2009,31/01/2023,UTC +00:00,Etc/GMT,NOAA,,,,,,,,,,,
01088799999,TROLL C OIL PLATFORM,Norway,,60.886,3.61,20.0,12/05/2011,31/01/2023,UTC +00:00,Etc/GMT,NOAA,,,,,,,,,,,
01089099999,HOYBUKTMOEN,Norway,,69.726,29.893,86.3,01/11/1940,31/01/2023,UTC +01:00,Europe/Oslo,NOAA,,,,,,,,,,,
01092099999,MAKKAUR FYR,Norway,,70.7,30.083,9.0,01/01/1973,28/01/2023,UTC +01:00,Europe/Oslo,NOAA,,,,,,,,,,,
01097099999,SVARTNES,Norway,,70.35,31.05,12.0,09/02/1993,31/12/1997,UTC +01:00,Europe/Oslo,NOAA,,,,,,,,,,,
01098099999,VARDO,Norway,,70.367,31.1,15.0,03/01/1931,31/01/2023,UTC +01:00,Europe/Oslo,NOAA,,,,,,,,,,,
01099099999,VARDO AP / SVARTNES,Norway,,70.355,31.045,12.8,02/01/2005,31/01/2023,UTC +01:00,Europe/Oslo,NOAA,,,,,,,,,,,
01102099999,SKLINNA FYR,Norway,,65.2,11.0,16.0,28/02/1975,31/01/2023,UTC +01:00,Europe/Oslo,NOAA,,,,,,,,,,,
01102599999,HEIDRUN,Norway,,65.333,7.317,80.0,24/04/1999,31/01/2023,UTC +00:00,Etc/GMT,NOAA,,,,,,,,,,,
01103099999,LEKA,Norway,,65.1,11.7,47.0,01/01/1973,31/12/1997,UTC +01:00,Europe/Oslo,NOAA,,,,,,,,,,,
01104099999,ROTVAER,Norway,,68.367,15.95,8.0,01/01/2008,17/08/2008,UTC +01:00,Europe/Oslo,NOAA,,,,,,,,,,,
01105099999,ROTVAER,Norway,,68.367,15.95,8.0,01/01/1973,31/01/2023,UTC +01:00,Europe/Oslo,NOAA,,,,,,,,,,,
01105199999,SKOMVAER (LGT-H),Norway,,67.417,11.883,18.0,07/03/2007,07/03/2007,UTC +01:00,Europe/Oslo,NOAA,,,,,,,,,,,
01106099999,ROEST III,Norway,,67.517,12.1,2.0,01/01/1928,17/12/1997,UTC +01:00,Europe/Oslo,NOAA,,,,,,,,,,,
01107099999,ROST (NOR-AFB),Norway,,67.517,12.1,4.0,03/03/1988,31/01/2023,UTC +01:00,Europe/Oslo,NOAA,,,,,,,,,,,
01108099999,VEGA-VALLSJO,Norway,,65.7,11.85,9.1,01/08/1991,31/01/2023,UTC +01:00,Europe/Oslo,NOAA,,,,,,,,,,,
01109099999,SKALVAER,Norway,,65.867,12.183,6.0,01/01/1973,10/09/1980,UTC +01:00,Europe/Oslo,NOAA,,,,,,,,,,,
01110099999,YTTERHOLMEN FYR,Norway,,66.0,11.683,33.0,01/12/1996,31/12/1997,UTC +01:00,Europe/Oslo,NOAA,,,,,,,,,,,
01111099999,BRONNOYSUND,Norway,,65.467,12.217,5.0,16/01/1973,18/07/1973,UTC +01:00,Europe/Oslo,NOAA,,,,,,,,,,,
01112099999,BRONNOY,Norway,,65.461,12.218,7.6,01/01/1973,31/01/2023,UTC +01:00,Europe/Oslo,NOAA,,,,,,,,,,,
01113099999,GLOMFJORD,Norway,,66.8,13.983,39.0,06/04/2004,16/12/2009,UTC +01:00,Europe/Oslo,NOAA,,,,,,,,,,,
01113399999,DAGALI,Norway,,60.417,8.513,798.0,09/05/1986,30/12/1997,UTC +01:00,Europe/Oslo,NOAA,,,,,,,,,,,
01114099999,REIPA,Norway,,66.9,13.633,8.0,02/07/2009,31/01/2023,UTC +01:00,Europe/Oslo,NOAA,,,,,,,,,,,
01115099999,MYKEN,Norway,,66.767,12.483,13.0,01/01/1973,31/01/2023,UTC +01:00,Europe/Oslo,NOAA,,,,,,,,,,,
01116099999,STOKKA,Norway,,65.95,12.467,17.1,01/04/1973,31/01/2023,UTC +01:00,Europe/Oslo,NOAA,,,,,,,,,,,
01117099999,TJOTTA,Norway,,65.817,12.417,21.0,19/01/2004,31/01/2023,UTC +01:00,Europe/Oslo,NOAA,,,,,,,,,,,
01121099999,SOLVAER III,Norway,,66.367,12.617,10.0,01/01/1973,12/01/2023,UTC +01:00,Europe/Oslo,NOAA,,,,,,,,,,,
01122099999,KJAERSTAD,Norway,,65.784,13.215,72.2,14/10/1988,31/01/2023,UTC +01:00,Europe/Oslo,NOAA,,,,,,,,,,,
01124099999,SNASA,Norway,,64.167,12.467,195.0,18/02/2005,12/01/2023,UTC +01:00,Europe/Oslo,NOAA,,,,,,,,,,,
01131099999,GLAPEN LIGHTHOUSE,Norway,,67.883,13.05,31.0,01/01/1973,25/06/1985,UTC +01:00,Europe/Oslo,NOAA,,,,,,,,,,,
01132099999,MAJAVATN V,Norway,,65.167,13.367,319.0,29/02/2008,31/01/2023,UTC +01:00,Europe/Oslo,NOAA,,,,,,,,,,,
01133099999,LAKSFORS,Norway,,65.617,13.283,50.0,29/11/2011,12/01/2023,UTC +01:00,Europe/Oslo,NOAA,,,,,,,,,,,
01134099999,MAJAVATN III,Norway,,65.183,13.417,339.0,01/01/1973,31/12/1997,UTC +01:00,Europe/Oslo,NOAA,,,,,,,,,,,
01135099999,SELJELIA,Norway,,66.117,13.583,123.0,29/11/2011,31/01/2023,UTC +01:00,Europe/Oslo,NOAA,,,,,,,,,,,
01137099999,STOTT,Norway,,66.933,13.45,12.0,06/08/1973,31/01/1997,UTC +01:00,Europe/Oslo,NOAA,,,,,,,,,,,
01138099999,TENNHOLMEN (LGT-H),Norway,,67.3,13.5,14.0,12/09/1985,31/12/1997,UTC +01:00,Europe/Oslo,NOAA,,,,,,,,,,,
01139099999,VAEROY HELIPORT,Norway,,67.65,12.717,4.0,28/09/2011,31/01/2023,UTC +01:00,Europe/Oslo,NOAA,,,,,,,,,,,
01141099999,LEKNES,Norway,,68.15,13.617,26.0,20/06/1973,31/01/2023,UTC +01:00,Europe/Oslo,NOAA,,,,,,,,,,,
01143099999,DRAG-AJLUOKTA,Norway,,68.05,16.083,19.0,06/08/2007,31/01/2023,UTC +01:00,Europe/Oslo,NOAA,,,,,,,,,,,
01144099999,HELLIGVAER II,Norway,,67.4,13.883,24.0,15/03/2005,12/01/2023,UTC +01:00,Europe/Oslo,NOAA,,,,,,,,,,,
01145099999,KVALNES I LOFOTEN,Norway,,68.35,13.967,15.0,01/01/1973,04/05/1982,UTC +01:00,Europe/Oslo,NOAA,,,,,,,,,,,
01146099999,SKAMDAL,Norway,,66.233,13.883,5.0,01/01/1973,23/01/2023,UTC +01:00,Europe/Oslo,NOAA,,,,,,,,,,,
01147099999,VARNTRESK,Norway,,65.833,14.183,406.0,07/09/1940,31/01/2023,UTC +01:00,Europe/Oslo,NOAA,,,,,,,,,,,
01148099999,STORFORSHEI,Norway,,66.383,14.517,110.0,16/06/2011,12/01/2023,UTC +01:00,Europe/Oslo,NOAA,,,,,,,,,,,
01149099999,RANA-BASMOEN,Norway,,66.333,14.1,42.0,01/01/1973,15/12/1997,UTC +01:00,Europe/Oslo,NOAA,,,,,,,,,,,
01150099999,HJARTASEN,Norway,,66.5,14.95,251.0,03/01/1973,31/01/2023,UTC +01:00,Europe/Oslo,NOAA,,,,,,,,,,,
01150199999,HATTFJELLDAL-KRUTA,Norway,,65.683,14.167,385.0,12/03/2002,12/03/2002,UTC +01:00,Europe/Oslo,NOAA,,,,,,,,,,,
01151099999,MOIRANA,Norway,,66.367,14.3,70.0,01/04/1973,31/01/2023,UTC +01:00,Europe/Oslo,NOAA,,,,,,,,,,,
01152099999,BODO,Norway,,67.269,14.365,12.8,17/09/1940,31/01/2023,UTC +01:00,Europe/Oslo,NOAA,,,,,,,,,,,
01153099999,BODO-VAGONES,Norway,,67.283,14.45,33.0,03/10/2011,11/06/2014,UTC +01:00,Europe/Oslo,NOAA,,,,,,,,,,,
01154099999,LITLOY FYR,Norway,,68.583,14.3,30.0,06/04/1994,31/12/1997,UTC +01:00,Europe/Oslo,NOAA,,,,,,,,,,,
01155099999,BO I VESTERALEN II,Norway,,68.633,14.467,12.0,01/01/1973,01/12/2004,UTC +01:00,Europe/Oslo,NOAA,,,,,,,,,,,
01156099999,BO I VESTERALEN,Norway,,68.6,14.433,7.6,10/05/2004,31/01/2023,UTC +01:00,Europe/Oslo,NOAA,,,,,,,,,,,
01158099999,SETSA,Norway,,67.167,15.483,8.0,14/01/2010,12/01/2023,UTC +01:00,Europe/Oslo,NOAA,,,,,,,,,,,
01160099999,SKROVA FYR,Norway,,68.15,14.65,11.0,01/01/1973,13/01/2023,UTC +01:00,Europe/Oslo,NOAA,,,,,,,,,,,
01161099999,SVOLVAER/HELLE,Norway,,68.25,14.667,9.0,20/06/1973,31/01/2023,UTC +01:00,Europe/Oslo,NOAA,,,,,,,,,,,
01162099999,STORKMARKNES/SKAGEN,Norway,,68.583,15.017,3.0,20/06/1973,31/01/2023,UTC +01:00,Europe/Oslo,NOAA,,,,,,,,,,,
01163099999,BOLNA,Norway,,66.5,15.25,549.0,01/01/1973,23/08/1977,UTC +01:00,Europe/Oslo,NOAA,,,,,,,,,,,
01165099999,GROTOY,Norway,,67.833,14.783,6.0,01/01/1973,31/10/1978,UTC +01:00,Europe/Oslo,NOAA,,,,,,,,,,,
01167099999,SORTLAND,Norway,,68.7,15.417,3.0,01/02/1985,31/12/1997,UTC +01:00,Europe/Oslo,NOAA,,,,,,,,,,,
01168099999,KLEIVA I SORTLAND,Norway,,68.65,15.283,23.0,01/01/1973,11/06/2006,UTC +01:00,Europe/Oslo,NOAA,,,,,,,,,,,
01169099999,SALTDAL-NORDNES,Norway,,66.933,15.317,37.0,01/01/1983,31/01/2023,UTC +01:00,Europe/Oslo,NOAA,,,,,,,,,,,
01169199999,OVRE SALTDAL,Norway,,66.967,15.317,26.0,01/01/1973,08/10/1978,UTC +01:00,Europe/Oslo,NOAA,,,,,,,,,,,
01170099999,FAUSKE-VETEN,Norway,,67.233,15.317,165.0,01/01/1973,07/03/1990,UTC +01:00,Europe/Oslo,NOAA,,,,,,,,,,,
01172099999,FINNOY I HAMAROY,Norway,,68.0,15.617,53.0,01/01/1973,11/03/2006,UTC +01:00,Europe/Oslo,NOAA,,,,,,,,,,,
01175199999,LODINGEN,Norway,,68.4,16.0,10.0,08/01/2004,08/01/2004,UTC +01:00,Europe/Oslo,NOAA,,,,,,,,,,,
01176099999,KONGSVIK,Norway,,68.567,16.267,25.0,01/01/1973,18/01/1978,UTC +01:00,Europe/Oslo,NOAA,,,,,,,,,,,
01180099999,HARSTAD,Norway,,68.8,16.533,45.0,10/05/2004,25/01/2023,UTC +01:00,Europe/Oslo,NOAA,,,,,,,,,,,
01182099999,EVENSKJER,Norway,,68.583,16.583,7.0,01/01/1973,19/11/1985,UTC +01:00,Europe/Oslo,NOAA,,,,,,,,,,,
01183099999,EVENES,Norway,,68.491,16.678,25.6,05/09/1975,31/01/2023,UTC +01:00,Europe/Oslo,NOAA,,,,,,,,,,,
01184099999,SANDSOY I SENJA,Norway,,68.933,16.683,45.0,01/01/1973,13/06/1978,UTC +01:00,Europe/Oslo,NOAA,,,,,,,,,,,
01184199999,SANDSOY,Norway,,68.933,16.683,45.0,07/03/2007,07/03/2007,UTC +01:00,Europe/Oslo,NOAA,,,,,,,,,,,
01189099999,LILAND,Norway,,68.483,16.883,19.0,02/01/1973,02/03/2005,UTC +01:00,Europe/Oslo,NOAA,,,,,,,,,,,
01191099999,SKJOMEN-SLETTJORD,Norway,,68.283,17.317,6.0,01/01/1973,04/11/1996,UTC +01:00,Europe/Oslo,NOAA,,,,,,,,,,,
01192099999,STRAUMSNES,Norway,,68.417,17.65,200.0,03/02/2011,14/01/2023,UTC +01:00,Europe/Oslo,NOAA,,,,,,,,,,,
01193099999,NARVIK III/FRAMNES,Norway,,68.467,17.5,23.0,06/07/2001,03/04/2017,UTC +01:00,Europe/Oslo,NOAA,,,,,,,,,,,
01194099999,NARVIK III,Norway,,68.467,17.5,23.0,01/01/1973,31/12/1997,UTC +01:00,Europe/Oslo,NOAA,,,,,,,,,,,
01196099999,TENNEVOLL,Norway,,68.75,17.817,21.0,01/01/1973,14/12/1997,UTC +01:00,Europe/Oslo,NOAA,,,,,,,,,,,
01198099999,DIVIDALEN II,Norway,,68.783,19.7,204.0,14/01/2010,12/01/2023,UTC +01:00,Europe/Oslo,NOAA,,,,,,,,,,,
01199099999,SIHCCAJAVRI,Norway,,68.75,23.533,382.0,01/01/1949,31/01/2023,UTC +01:00,Europe/Oslo,NOAA,,,,,,,,,,,
01203099999,KRAKENES,Norway,,62.033,4.983,41.0,04/09/1931,31/01/2023,UTC +01:00,Europe/Oslo,NOAA,,,,,,,,,,,
01205099999,SVINOY LH,Norway,,62.333,5.267,37.2,01/01/1973,30/01/2023,UTC +01:00,Europe/Oslo,NOAA,,,,,,,,,,,
01207099999,FISKABYGD,Norway,,62.1,5.583,41.0,10/05/2004,30/06/2018,UTC +01:00,Europe/Oslo,NOAA,,,,,,,,,,,
01209099999,ORSTA-VOLDA/HOVDEN,Norway,,62.183,6.067,74.0,11/12/1984,31/01/2023,UTC +01:00,Europe/Oslo,NOAA,,,,,,,,,,,
01209199999,ORSTA-VOLDA/HOVD,Norway,,62.183,6.05,74.0,10/09/1984,27/11/1984,UTC +01:00,Europe/Oslo,NOAA,,,,,,,,,,,
01210099999,VIGRA,Norway,,62.56,6.11,21.0,01/01/1973,31/01/2023,UTC +01:00,Europe/Oslo,NOAA,,,,,,,,,,,
01212099999,ONA II,Norway,,62.867,6.533,15.0,01/01/1955,31/01/2023,UTC +01:00,Europe/Oslo,NOAA,,,,,,,,,,,
01214099999,REKDAL,Norway,,62.65,6.767,43.0,12/01/2009,18/01/2023,UTC +01:00,Europe/Oslo,NOAA,,,,,,,,,,,
01215099999,HJELVIK MYRBO,Norway,,62.62,7.23,35.0,01/01/1973,30/06/2009,UTC +01:00,Europe/Oslo,NOAA,,,,,,,,,,,
01216099999,HJELVIK I ROMSDAL,Norway,,62.617,7.217,16.0,26/12/1973,27/05/2002,UTC +01:00,Europe/Oslo,NOAA,,,,,,,,,,,
01216199999,GJERMUNDNES,Norway,,62.617,7.167,49.0,12/04/2004,12/04/2004,UTC +01:00,Europe/Oslo,NOAA,,,,,,,,,,,
01217099999,ARO,Norway,,62.745,7.263,3.0,01/02/1976,31/01/2023,UTC +01:00,Europe/Oslo,NOAA,,,,,,,,,,,
01218099999,TAFJORD,Norway,,62.233,7.417,17.0,01/01/1973,31/01/2023,UTC +01:00,Europe/Oslo,NOAA,,,,,,,,,,,
01220099999,MANNEN,Norway,,62.45,7.767,1294.0,15/03/2010,29/01/2023,UTC +01:00,Europe/Oslo,NOAA,,,,,,,,,,,
01221099999,TAGDALEN,Norway,,63.05,9.083,415.0,15/01/2008,12/01/2023,UTC +01:00,Europe/Oslo,NOAA,,,,,,,,,,,
01223099999,KVERNBERGET,Norway,,63.112,7.825,62.2,01/01/1973,31/01/2023,UTC +01:00,Europe/Oslo,NOAA,,,,,,,,,,,
01224099999,AALESUND,Norway,,62.467,6.217,50.0,01/12/1984,29/01/2023,UTC +01:00,Europe/Oslo,NOAA,,,,,,,,,,,
01225099999,VEIHOLMEN,Norway,,63.517,7.95,5.0,01/01/1973,28/01/2023,UTC +01:00,Europe/Oslo,NOAA,,,,,,,,,,,
01227099999,INNERDALEN,Norway,,62.717,8.783,405.0,01/01/1973,31/01/2023,UTC +01:00,Europe/Oslo,NOAA,,,,,,,,,,,
01227399999,TINGVOLL-HANEM,Norway,,62.833,8.3,69.0,01/01/2005,08/01/2015,UTC +01:00,Europe/Oslo,NOAA,,,,,,,,,,,
01228099999,SULA,Norway,,63.85,8.467,6.0,01/01/1973,24/01/2023,UTC +01:00,Europe/Oslo,NOAA,,,,,,,,,,,
01230099999,BJORLI,Norway,,62.267,8.2,579.0,01/01/1973,21/01/2023,UTC +01:00,Europe/Oslo,NOAA,,,,,,,,,,,
01231099999,LESJASKOG,Norway,,62.233,8.367,621.0,30/10/1977,06/12/1997,UTC +01:00,Europe/Oslo,NOAA,,,,,,,,,,,
01232099999,VINJEORA II,Norway,,62.45,7.85,67.0,01/01/1973,31/01/2023,UTC +01:00,Europe/Oslo,NOAA,,,,,,,,,,,
01233099999,DOMBAAS,Norway,,62.083,9.117,638.0,21/11/2006,31/01/2023,UTC +01:00,Europe/Oslo,NOAA,,,,,,,,,,,
01234099999,ORKDAL-THAMSHAMN,Norway,,63.317,9.85,4.0,21/11/2006,31/01/2023,UTC +01:00,Europe/Oslo,NOAA,,,,,,,,,,,
01235099999,DOMBAS-KIRKENAER,Norway,,62.083,9.133,645.0,01/01/1936,02/06/1976,UTC +01:00,Europe/Oslo,NOAA,,,,,,,,,,,
01236099999,KJOREMSGRENDE,Norway,,62.1,9.05,626.0,18/02/2005,04/01/2010,UTC +01:00,Europe/Oslo,NOAA,,,,,,,,,,,
01237099999,HITRA,Norway,,63.517,9.117,13.0,02/04/2005,31/01/2023,UTC +01:00,Europe/Oslo,NOAA,,,,,,,,,,,
01238099999,FOKSTUA II,Norway,,62.117,9.283,974.0,01/01/1973,31/01/2023,UTC +01:00,Europe/Oslo,NOAA,,,,,,,,,,,
01239099999,HJERKINN II,Norway,,62.217,9.55,1012.0,07/09/2010,12/01/2023,UTC +01:00,Europe/Oslo,NOAA,,,,,,,,,,,
01240099999,HALTEN FYR,Norway,,64.167,9.4,16.0,10/01/1985,25/01/2023,UTC +01:00,Europe/Oslo,NOAA,,,,,,,,,,,
01241099999,ORLAND,Norway,,63.699,9.604,8.5,01/01/1973,31/01/2023,UTC +01:00,Europe/Oslo,NOAA,,,,,,,,,,,
01242099999,AFJORD II,Norway,,63.967,10.217,30.0,15/01/2008,31/01/2023,UTC +01:00,Europe/Oslo,NOAA,,,,,,,,,,,
01243099999,SONGLI,Norway,,63.333,9.65,300.0,01/01/1973,19/11/1976,UTC +01:00,Europe/Oslo,NOAA,,,,,,,,,,,
01245099999,OPPDAL-SETER,Norway,,62.6,9.667,606.0,01/02/1976,12/01/2023,UTC +01:00,Europe/Oslo,NOAA,,,,,,,,,,,
01248099999,VALLERSUND,Norway,,63.85,9.733,4.0,01/01/1973,19/12/1975,UTC +01:00,Europe/Oslo,NOAA,,,,,,,,,,,
01250099999,FOLLDAL-FREDHEIM,Norway,,62.133,10.0,694.0,28/09/2011,31/01/2023,UTC +01:00,Europe/Oslo,NOAA,,,,,,,,,,,
01252099999,BERKAK-LYNGHOLT,Norway,,62.817,10.017,475.0,01/01/1973,31/12/1997,UTC +01:00,Europe/Oslo,NOAA,,,,,,,,,,,
01253099999,SOKNEDAL,Norway,,62.95,10.183,299.0,12/01/2009,28/01/2023,UTC +01:00,Europe/Oslo,NOAA,,,,,,,,,,,
01254099999,KOTSOY,Norway,,62.983,10.55,127.0,12/01/2009,12/01/2023,UTC +01:00,Europe/Oslo,NOAA,,,,,,,,,,,
01257099999,TRONDHEIM/VOLL,Norway,,63.417,10.45,131.5,06/04/2004,12/01/2023,UTC +01:00,Europe/Oslo,NOAA,,,,,,,,,,,
01258099999,TRONDHEIM (TYHOLT),Norway,,63.417,10.433,113.0,01/01/1973,14/07/1981,UTC +01:00,Europe/Oslo,NOAA,,,,,,,,,,,
01259099999,BUHOLMRASA LH,Norway,,64.4,10.45,18.4,01/01/1973,30/01/2023,UTC +01:00,Europe/Oslo,NOAA,,,,,,,,,,,
01262099999,NORDOYAN FYR,Norway,,64.8,10.55,33.0,02/01/1928,25/01/2023,UTC +01:00,Europe/Oslo,NOAA,,,,,,,,,,,
01265099999,TYNSET-HANSMOEN,Norway,,62.267,10.733,482.3,01/01/1949,31/01/2023,UTC +01:00,Europe/Oslo,NOAA,,,,,,,,,,,
01270099999,KVITHAMAR,Norway,,63.483,10.883,40.0,03/10/2011,25/01/2023,UTC +01:00,Europe/Oslo,NOAA,,,,,,,,,,,
01271099999,VAERNES,Norway,,63.458,10.94,17.1,13/04/1940,31/01/2023,UTC +01:00,Europe/Oslo,NOAA,,,,,,,,,,,
01272099999,FROSTA,Norway,,63.567,10.7,70.0,29/09/2011,31/01/2023,UTC +01:00,Europe/Oslo,NOAA,,,,,,,,,,,
01273099999,SELBU,Norway,,63.233,11.017,160.0,16/10/2007,31/01/2023,UTC +01:00,Europe/Oslo,NOAA,,,,,,,,,,,
01274099999,SELBU-STUBBE,Norway,,63.2,11.117,242.0,01/01/1973,31/12/1997,UTC +01:00,Europe/Oslo,NOAA,,,,,,,,,,,
01277099999,STEINKJER,Norway,,64.017,11.45,80.0,01/01/1973,13/01/2023,UTC +01:00,Europe/Oslo,NOAA,,,,,,,,,,,
01277199999,LEVANGER-EGGEN,Norway,,63.717,11.233,97.0,01/01/1973,16/02/1973,UTC +01:00,Europe/Oslo,NOAA,,,,,,,,,,,
01278099999,VERDAL-REPPE,Norway,,63.783,11.683,83.0,02/01/1985,31/12/1997,UTC +01:00,Europe/Oslo,NOAA,,,,,,,,,,,
01280099999,NAMDALSEID-VENGSTAD,Norway,,64.133,11.333,118.0,01/01/1973,31/12/1997,UTC +01:00,Europe/Oslo,NOAA,,,,,,,,,,,
01281099999,NAMSSKOGAN,Norway,,64.733,12.85,140.0,05/01/2007,29/01/2023,UTC +01:00,Europe/Oslo,NOAA,,,,,,,,,,,
01282099999,RORVIK/RYUM,Norway,,64.85,11.233,14.0,01/09/1995,31/01/2023,UTC +01:00,Europe/Oslo,NOAA,,,,,,,,,,,
01282399999,RORVIK/RYUM,Norway,,64.85,11.233,14.0,27/08/1991,31/08/1995,UTC +01:00,Europe/Oslo,NOAA,,,,,,,,,,,
01287099999,SOLENDET,Norway,,62.683,11.817,747.0,15/01/2008,12/01/2023,UTC +01:00,Europe/Oslo,NOAA,,,,,,,,,,,
01288099999,ROROS,Norway,,62.567,11.383,630.0,01/01/1973,31/01/2023,UTC +01:00,Europe/Oslo,NOAA,,,,,,,,,,,
01289099999,ROROS LUFTHAVN,Norway,,62.583,11.35,626.0,09/09/1984,31/12/1997,UTC +01:00,Europe/Oslo,NOAA,,,,,,,,,,,
01289199999,ROROS/AIRPORT,Norway,,62.583,11.383,626.0,01/03/1979,17/08/1984,UTC +01:00,Europe/Oslo,NOAA,,,,,,,,,,,
01290099999,NAMSOS AIRPORT,Norway,,64.467,11.583,2.0,01/04/1973,31/01/2023,UTC +01:00,Europe/Oslo,NOAA,,,,,,,,,,,
01291099999,GARTLAND,Norway,,64.533,12.383,95.0,12/01/2009,31/01/2023,UTC +01:00,Europe/Oslo,NOAA,,,,,,,,,,,
01292099999,MERAKER-UTSYN,Norway,,63.417,11.7,240.0,01/01/1973,31/12/1997,UTC +01:00,Europe/Oslo,NOAA,,,,,,,,,,,
01293099999,MERAKER-EGGE,Norway,,63.417,11.733,171.0,15/02/2005,28/01/2023,UTC +01:00,Europe/Oslo,NOAA,,,,,,,,,,,
01295099999,HOYLANDET,Norway,,64.55,12.15,27.0,01/01/1973,12/06/2007,UTC +01:00,Europe/Oslo,NOAA,,,,,,,,,,,
01296099999,BERG I SNASA,Norway,,64.25,12.417,127.0,01/01/1973,06/06/1977,UTC +01:00,Europe/Oslo,NOAA,,,,,,,,,,,
01298099999,NORDLI-HOLAND,Norway,,64.45,13.717,433.0,01/01/1973,16/10/2019,UTC +01:00,Europe/Oslo,NOAA,,,,,,,,,,,
01300099999,GULLFAKS C,Norway,,61.2,2.267,78.0,01/06/2001,31/01/2023,UTC +00:00,Etc/GMT,NOAA,,,,,,,,,,,
01300599999,STATFJORD OIL PLATFORM HELIPO,Faroe Islands,,61.25,1.85,117.7,04/12/1984,31/01/2023,UTC +00:00,Etc/GMT,NOAA,,,,,,,,,,,
01304099999,YTTEROYANE FYR,Norway,,61.567,4.683,25.0,01/09/1984,31/01/2023,UTC +01:00,Europe/Oslo,NOAA,,,,,,,,,,,
01306099999,HELLISOY FYR,Norway,,60.75,4.717,23.0,01/01/1973,29/12/2004,UTC +01:00,Europe/Oslo,NOAA,,,,,,,,,,,
01307099999,FEDJE,Norway,,60.75,4.717,20.0,18/02/2005,31/01/2023,UTC +01:00,Europe/Oslo,NOAA,,,,,,,,,,,
01308099999,FURUNESET,Norway,,61.3,5.05,7.0,28/09/2011,25/01/2023,UTC +01:00,Europe/Oslo,NOAA,,,,,,,,,,,
01309099999,KINN ISLAND,Norway,,61.567,4.8,10.0,04/01/1931,22/10/2005,UTC +01:00,Europe/Oslo,NOAA,,,,,,,,,,,
01310099999,FLORO,Norway,,61.584,5.025,11.3,07/04/1980,31/01/2023,UTC +01:00,Europe/Oslo,NOAA,,,,,,,,,,,
01311099999,FLESLAND,Norway,,60.293,5.218,51.8,01/01/1973,31/01/2023,UTC +01:00,Europe/Oslo,NOAA,,,,,,,,,,,
01314099999,FOSSMARK,Norway,,60.517,5.717,10.0,15/06/2012,02/01/2023,UTC +01:00,Europe/Oslo,NOAA,,,,,,,,,,,
01315099999,EVANGER,Norway,,60.633,6.1,17.0,14/12/2010,29/01/2023,UTC +01:00,Europe/Oslo,NOAA,,,,,,,,,,,
01316099999,BERGEN-FREDRIKSBERG,Norway,,60.4,5.317,40.0,01/01/1973,30/12/1985,UTC +01:00,Europe/Oslo,NOAA,,,,,,,,,,,
01317099999,BERGEN/FLORIDA,Norway,,60.383,5.333,36.0,01/01/1973,30/01/2023,UTC +01:00,Europe/Oslo,NOAA,,,,,,,,,,,
01318099999,SANDANE,Norway,,61.783,6.183,51.0,14/06/2005,31/12/2017,UTC +01:00,Europe/Oslo,NOAA,,,,,,,,,,,
01319099999,TAKLE,Norway,,61.033,5.383,38.0,01/01/1973,13/01/2023,UTC +01:00,Europe/Oslo,NOAA,,,,,,,,,,,
01320099999,SANDANE/ANDA,Norway,,61.833,6.117,60.0,04/09/1981,31/01/2023,UTC +01:00,Europe/Oslo,NOAA,,,,,,,,,,,
01321099999,STRYN,Norway,,61.9,6.55,208.0,01/01/1973,31/01/2023,UTC +01:00,Europe/Oslo,NOAA,,,,,,,,,,,
01322099999,FORDE-TEFRE,Norway,,61.467,5.917,64.0,01/01/1973,31/12/1997,UTC +01:00,Europe/Oslo,NOAA,,,,,,,,,,,
01323099999,BRINGELAND,Norway,,61.393,5.764,327.0,02/05/1984,31/01/2023,UTC +01:00,Europe/Oslo,NOAA,,,,,,,,,,,
01325099999,MODALEN II,Norway,,60.833,5.95,114.0,01/01/1973,31/12/1997,UTC +01:00,Europe/Oslo,NOAA,,,,,,,,,,,
01326099999,MODALEN III,Norway,,60.85,5.983,125.0,08/10/2008,24/01/2023,UTC +01:00,Europe/Oslo,NOAA,,,,,,,,,,,
01327099999,KVAMSKOGEN-JONSHOGDI,Norway,,60.383,5.967,455.0,21/11/2006,31/01/2023,UTC +01:00,Europe/Oslo,NOAA,,,,,,,,,,,
01328099999,KVAMSKOGEN,Norway,,60.4,5.917,408.0,01/01/1973,26/07/2006,UTC +01:00,Europe/Oslo,NOAA,,,,,,,,,,,
01329099999,KVAMSOY,Norway,,60.35,6.267,50.0,18/02/2005,31/01/2023,UTC +01:00,Europe/Oslo,NOAA,,,,,,,,,,,
01330099999,OMASTRAND,Norway,,60.217,5.983,6.0,01/01/1973,31/12/1997,UTC +01:00,Europe/Oslo,NOAA,,,,,,,,,,,
01332099999,FJAERLAND BREMUSEET,Norway,,61.43,6.77,3.0,01/02/2006,24/01/2023,UTC +01:00,Europe/Oslo,NOAA,,,,,,,,,,,
01336099999,BULKEN,Norway,,60.65,6.217,328.0,01/01/1973,28/01/2023,UTC +01:00,Europe/Oslo,NOAA,,,,,,,,,,,
01337099999,VOSSEVANGEN,Norway,,60.633,6.433,55.0,18/02/2005,31/01/2023,UTC +01:00,Europe/Oslo,NOAA,,,,,,,,,,,
01338099999,VANGSNES,Norway,,61.167,6.65,51.0,06/07/2004,31/01/2023,UTC +01:00,Europe/Oslo,NOAA,,,,,,,,,,,
01339099999,VANGSNES,Norway,,61.167,6.65,53.0,01/01/1973,02/11/2001,UTC +01:00,Europe/Oslo,NOAA,,,,,,,,,,,
01340099999,FET I EIDFJORD,Norway,,60.42,7.28,737.0,26/07/2005,13/01/2023,UTC +01:00,Europe/Oslo,NOAA,,,,,,,,,,,
01341099999,EIDFJORD-BU,Norway,,60.467,6.867,166.0,01/01/1983,31/12/1997,UTC +01:00,Europe/Oslo,NOAA,,,,,,,,,,,
01342099999,ULLENSVANG,Norway,,60.317,6.65,12.0,01/01/1973,31/01/2023,UTC +01:00,Europe/Oslo,NOAA,,,,,,,,,,,
01344099999,MJOLFJELL,Norway,,60.7,6.95,695.0,01/01/1973,30/01/2023,UTC +01:00,Europe/Oslo,NOAA,,,,,,,,,,,
01345099999,KLEVAVATNET,Norway,,60.717,7.217,960.0,07/10/1973,26/01/2023,UTC +01:00,Europe/Oslo,NOAA,,,,,,,,,,,
01346099999,MIDTSTOVA,Norway,,60.65,7.267,1162.0,25/11/2011,29/01/2023,UTC +01:00,Europe/Oslo,NOAA,,,,,,,,,,,
01347099999,SOGNDAL HAUKASEN,Norway,,61.156,7.137,511.0,18/01/1985,31/01/2023,UTC +01:00,Europe/Oslo,NOAA,,,,,,,,,,,
01347199999,SOGNDAL/HAUKASEN,Norway,,61.167,7.133,498.0,01/08/1984,17/12/1984,UTC +01:00,Europe/Oslo,NOAA,,,,,,,,,,,
01350099999,FINSEVATN,Norway,,60.6,7.533,1208.0,30/03/2003,31/01/2023,UTC +01:00,Europe/Oslo,NOAA,,,,,,,,,,,
01351099999,FINSE III,Norway,,60.6,7.5,1224.0,02/01/1973,10/12/2001,UTC +01:00,Europe/Oslo,NOAA,,,,,,,,,,,
01352099999,SANDHAUG,Norway,,60.183,7.483,1250.0,07/01/2004,21/01/2023,UTC +01:00,Europe/Oslo,NOAA,,,,,,,,,,,
01355099999,LAERDAL IV,Norway,,61.1,7.5,5.0,01/01/1973,13/01/2023,UTC +01:00,Europe/Oslo,NOAA,,,,,,,,,,,
01356099999,FANNARAKI,Faroe Islands,,61.517,7.9,2062.0,25/11/1988,27/08/2014,UTC +01:00,Europe/Oslo,NOAA,,,,,,,,,,,
01357099999,HOLLEKOLTEN,Norway,,60.867,8.517,804.2,01/01/1973,12/01/2023,UTC +01:00,Europe/Oslo,NOAA,,,,,,,,,,,
01358099999,HEMSEDAL II,Norway,,60.85,8.6,604.0,29/09/2011,28/01/2023,UTC +01:00,Europe/Oslo,NOAA,,,,,,,,,,,
01359099999,GEILO-OLDEBRATEN,Norway,,60.533,8.2,773.0,01/01/1973,12/01/2023,UTC +01:00,Europe/Oslo,NOAA,,,,,,,,,,,
01359199999,HAUGASTOL,Norway,,60.517,7.867,988.0,07/03/2007,07/03/2007,UTC +01:00,Europe/Oslo,NOAA,,,,,,,,,,,
01360099999,BRATA-SLETTOM,Norway,,61.9,7.9,664.0,01/01/1973,27/01/2023,UTC +01:00,Europe/Oslo,NOAA,,,,,,,,,,,
01361099999,GROTLI III,Norway,,62.017,7.667,872.0,01/01/1973,31/01/2023,UTC +01:00,Europe/Oslo,NOAA,,,,,,,,,,,
01362099999,JUVVASSHOE,Norway,,61.667,8.367,1894.0,26/06/2009,12/01/2023,UTC +01:00,Europe/Oslo,NOAA,,,,,,,,,,,
01364099999,FILEFJELL,Norway,,61.183,8.117,955.1,01/01/1949,19/01/2023,UTC +01:00,Europe/Oslo,NOAA,,,,,,,,,,,
01365099999,BEITOSTOLEN II,Norway,,61.251,8.917,965.0,04/04/1973,12/01/2023,UTC +01:00,Europe/Oslo,NOAA,,,,,,,,,,,
01366099999,SOGNEFJELL,Norway,,61.567,8.0,1413.0,01/03/1979,13/01/2023,UTC +01:00,Europe/Oslo,NOAA,,,,,,,,,,,
01367099999,FAGERNES,Norway,,60.983,9.217,365.4,01/10/1982,31/01/2023,UTC +01:00,Europe/Oslo,NOAA,,,,,,,,,,,
01367199999,BEITOSTOLEN,Norway,,61.233,8.933,828.0,01/01/1973,05/11/1980,UTC +01:00,Europe/Oslo,NOAA,,,,,,,,,,,
01368099999,LEIRIN,Norway,,61.016,9.288,822.0,14/10/1988,19/07/2022,UTC +01:00,Europe/Oslo,NOAA,,,,,,,,,,,
01369099999,ABJORSBRATEN,Norway,,60.917,9.283,639.0,01/10/1988,30/12/2017,UTC +01:00,Europe/Oslo,NOAA,,,,,,,,,,,
01370099999,SKABU,Norway,,61.517,9.4,928.0,01/01/1973,31/01/2023,UTC +01:00,Europe/Oslo,NOAA,,,,,,,,,,,
01371099999,LOKEN I VOLBU,Norway,,61.117,9.067,521.0,01/01/1973,31/01/2023,UTC +01:00,Europe/Oslo,NOAA,,,,,,,,,,,
01372099999,NESBYEN-SKOGLUND,Norway,,60.567,9.133,167.0,01/01/1973,31/12/1997,UTC +01:00,Europe/Oslo,NOAA,,,,,,,,,,,
01373099999,NESBYEN-TODOKK,Norway,,60.567,9.133,166.0,01/01/1973,15/01/2023,UTC +01:00,Europe/Oslo,NOAA,,,,,,,,,,,
01374099999,VEST-TORPA II,Norway,,60.933,10.033,542.0,01/05/1981,12/01/2023,UTC +01:00,Europe/Oslo,NOAA,,,,,,,,,,,
01374399999,FAGERNES/LEIRIN   and,Norway,,61.0,9.3,822.0,05/01/1988,13/09/1988,UTC +01:00,Europe/Oslo,NOAA,,,,,,,,,,,
01375099999,KVITFJELL,Norway,,61.467,10.133,1028.0,01/01/1973,31/01/2023,UTC +01:00,Europe/Oslo,NOAA,,,,,,,,,,,
01375599999,GULLFAX (PLATFORM),Norway,,61.033,2.033,10.0,15/11/1989,31/01/2023,UTC +00:00,Etc/GMT,NOAA,,,,,,,,,,,
01376099999,GULSVIK II,Norway,,60.383,9.6,142.0,01/01/1973,13/01/2023,UTC +01:00,Europe/Oslo,NOAA,,,,,,,,,,,
01378099999,LILLEHAMMER-SAETHERENGEN,Norway,,61.1,10.467,239.0,01/01/1973,31/01/2023,UTC +01:00,Europe/Oslo,NOAA,,,,,,,,,,,
01379099999,SOR-NESSET,Norway,,61.883,10.15,739.0,01/01/1973,09/12/2005,UTC +01:00,Europe/Oslo,NOAA,,,,,,,,,,,
01380099999,VENABU,Norway,,61.65,10.117,930.0,10/01/1985,31/01/2023,UTC +01:00,Europe/Oslo,NOAA,,,,,,,,,,,
01380199999,KITTILBU,Norway,,61.167,9.967,816.0,14/11/1974,27/08/1984,UTC +01:00,Europe/Oslo,NOAA,,,,,,,,,,,
01381099999,APELSVOLL,Norway,,60.7,10.867,264.0,03/10/2011,25/01/2023,UTC +01:00,Europe/Oslo,NOAA,,,,,,,,,,,
01382099999,KISE,Norway,,60.767,10.8,128.0,01/01/1973,31/01/2023,UTC +01:00,Europe/Oslo,NOAA,,,,,,,,,,,
01383099999,EVENSTAD-DIH,Norway,,61.4,11.08,255.0,01/01/1973,13/01/2023,UTC +01:00,Europe/Oslo,NOAA,,,,,,,,,,,
01383999999,HAMAR / STAFSBERG,Norway,,60.817,11.067,223.0,05/02/1987,22/02/1990,UTC +01:00,Europe/Oslo,NOAA,,,,,,,,,,,
01384099999,GARDERMOEN,Norway,,60.194,11.1,207.6,11/05/1940,31/01/2023,UTC +01:00,Europe/Oslo,NOAA,,,,,,,,,,,
01385099999,HAMER,Norway,,60.817,11.067,222.3,24/10/2006,31/01/2023,UTC +01:00,Europe/Oslo,NOAA,,,,,,,,,,,
01386099999,HAMAR II,Norway,,60.8,11.1,132.0,01/07/2009,13/01/2023,UTC +01:00,Europe/Oslo,NOAA,,,,,,,,,,,
01387099999,FAVANG,Norway,,61.45,10.183,200.0,29/09/2011,31/01/2023,UTC +01:00,Europe/Oslo,NOAA,,,,,,,,,,,
01389099999,RENA AP,Norway,,61.183,11.367,255.7,01/01/1973,13/01/2023,UTC +01:00,Europe/Oslo,NOAA,,,,,,,,,,,
01391099999,FLISA,Norway,,60.617,12.017,188.0,01/01/1973,31/12/1997,UTC +01:00,Europe/Oslo,NOAA,,,,,,,,,,,
01392099999,FLISA II,Norway,,60.617,12.017,185.0,18/02/2005,12/01/2023,UTC +01:00,Europe/Oslo,NOAA,,,,,,,,,,,
01393099999,DREVSJO,Norway,,61.883,12.033,673.5,01/01/1973,31/01/2023,UTC +01:00,Europe/Oslo,NOAA,,,,,,,,,,,
01397099999,TRYSIL VEGSTASJON,Norway,,61.3,12.267,361.4,01/01/1973,12/01/2023,UTC +01:00,Europe/Oslo,NOAA,,,,,,,,,,,
01400099999,EKOFISK,Norway,,56.55,3.217,48.8,23/12/1998,01/09/2020,UTC +00:00,Etc/GMT,NOAA,,,,,,,,,,,
01401099999,FRIGG,Norway,,59.983,2.25,48.0,01/06/2001,18/07/2006,UTC +00:00,Etc/GMT,NOAA,,,,,,,,,,,
01403099999,UTSIRA FYR,Norway,,59.3,4.867,56.3,02/01/1928,31/01/2023,UTC +01:00,Europe/Oslo,NOAA,,,,,,,,,,,
01403399999,EKOFISK OIL PLTFRM,Norway,,56.55,3.25,48.8,06/05/1981,31/01/2023,UTC +00:00,Etc/GMT,NOAA,,,,,,,,,,,
01403599999,KARMOY,Norway,,59.35,5.217,23.0,01/11/1975,07/08/1984,UTC +01:00,Europe/Oslo,NOAA,,,,,,,,,,,
01406099999,SLATTEROY FYR,Norway,,59.917,5.067,16.0,01/01/1973,30/01/2023,UTC +01:00,Europe/Oslo,NOAA,,,,,,,,,,,
01408099999,KARMOY,Norway,,59.345,5.208,26.2,09/09/1984,31/01/2023,UTC +01:00,Europe/Oslo,NOAA,,,,,,,,,,,
01409099999,SKUDENES,Norway,,59.15,5.25,7.0,18/02/2005,28/10/2005,UTC +01:00,Europe/Oslo,NOAA,,,,,,,,,,,
01411099999,KVITSOY - NORDBO,Norway,,59.067,5.417,22.0,12/06/2005,31/01/2023,UTC +01:00,Europe/Oslo,NOAA,,,,,,,,,,,
01412099999,OBRESTAD,Norway,,58.65,5.567,26.0,01/01/1973,31/01/2023,UTC +01:00,Europe/Oslo,NOAA,,,,,,,,,,,
01413099999,SAERHEIM,Norway,,58.75,5.65,87.0,28/09/2011,31/01/2023,UTC +01:00,Europe/Oslo,NOAA,,,,,,,,,,,
01414099999,ROVER,Norway,,59.433,5.067,25.0,20/05/1989,13/01/2023,UTC +01:00,Europe/Oslo,NOAA,,,,,,,,,,,
01415099999,SOLA,Norway,,58.877,5.638,8.8,10/04/1940,31/01/2023,UTC +01:00,Europe/Oslo,NOAA,,,,,,,,,,,
01416099999,STAVANGER VAALAND,Norway,,58.95,5.733,72.0,24/07/2008,17/01/2023,UTC +01:00,Europe/Oslo,NOAA,,,,,,,,,,,
01417099999,NEDRE VATS,Norway,,59.483,5.75,65.0,03/01/1973,25/01/2023,UTC +01:00,Europe/Oslo,NOAA,,,,,,,,,,,
01418099999,AUSTEVOLL,Norway,,60.017,5.2,32.0,01/01/1973,12/01/2023,UTC +01:00,Europe/Oslo,NOAA,,,,,,,,,,,
01419099999,LIARVATN,Norway,,59.05,6.117,300.0,02/07/2010,31/01/2023,UTC +01:00,Europe/Oslo,NOAA,,,,,,,,,,,
01421199999,INDRE MATRE,Norway,,59.85,6.0,24.0,14/03/2002,14/03/2002,UTC +01:00,Europe/Oslo,NOAA,,,,,,,,,,,
01422099999,FISTER SIGMUNDSTAD,Norway,,59.167,6.033,25.0,01/01/2005,31/01/2023,UTC +01:00,Europe/Oslo,NOAA,,,,,,,,,,,
01423099999,FISTER-TONNEVIK,Norway,,59.167,6.05,50.0,01/01/1973,31/12/2004,UTC +01:00,Europe/Oslo,NOAA,,,,,,,,,,,
01424099999,SAUDA,Norway,,59.65,6.367,6.0,01/01/1973,27/01/2023,UTC +01:00,Europe/Oslo,NOAA,,,,,,,,,,,
01425099999,EIK HOVE,Norway,,58.517,6.517,66.0,01/01/1973,28/01/2023,UTC +01:00,Europe/Oslo,NOAA,,,,,,,,,,,
01426099999,EIGEROYA,Norway,,58.433,5.867,49.0,25/04/2004,13/01/2023,UTC +01:00,Europe/Oslo,NOAA,,,,,,,,,,,
01427099999,LISTA FYR,Norway,,58.117,6.567,14.0,01/01/1928,12/01/2023,UTC +01:00,Europe/Oslo,NOAA,,,,,,,,,,,
01428099999,LISTA,Norway,,58.099,6.626,8.8,01/01/1973,30/12/1997,UTC +01:00,Europe/Oslo,NOAA,,,,,,,,,,,
01428199999,ULA OIL PLATFORM,Norway,,59.111,2.846,94.0,06/08/2013,31/01/2023,UTC +00:00,Etc/GMT,NOAA,,,,,,,,,,,
01430099999,MANDAL II,Norway,,58.017,7.45,138.0,01/01/1973,14/01/2023,UTC +01:00,Europe/Oslo,NOAA,,,,,,,,,,,
01431099999,SIRDAL-SINNES,Norway,,58.933,6.917,557.0,06/08/2007,13/01/2023,UTC +01:00,Europe/Oslo,NOAA,,,,,,,,,,,
01432099999,SIRDAL-TJORHOM,Norway,,58.883,6.85,500.0,14/11/1974,31/12/1997,UTC +01:00,Europe/Oslo,NOAA,,,,,,,,,,,
01432199999,FIDJELAND,Norway,,58.967,6.933,568.0,07/03/2007,07/03/2007,UTC +01:00,Europe/Oslo,NOAA,,,,,,,,,,,
01433099999,MIDTLAEGER,Norway,,59.833,6.983,1081.0,01/01/1973,28/05/2015,UTC +01:00,Europe/Oslo,NOAA,,,,,,,,,,,
01434099999,VAAGSLI,Norway,,59.767,7.367,822.0,06/04/2004,22/01/2023,UTC +01:00,Europe/Oslo,NOAA,,,,,,,,,,,
01435099999,HAUKELISETER TESTFELT,Norway,,59.817,7.217,989.5,11/01/1985,31/01/2023,UTC +01:00,Europe/Oslo,NOAA,,,,,,,,,,,
01436099999,LINDESNES FYR,Norway,,57.983,7.05,13.0,01/01/1973,31/01/2023,UTC +01:00,Europe/Oslo,NOAA,,,,,,,,,,,
01439099999,KONSMO-HOYLAND,Norway,,58.25,7.442,260.0,01/01/1973,31/01/2023,UTC +01:00,Europe/Oslo,NOAA,,,,,,,,,,,
01440099999,BLASJO,Norway,,59.333,6.867,1104.6,01/01/1973,31/01/2023,UTC +01:00,Europe/Oslo,NOAA,,,,,,,,,,,
01441099999,HOVDEN-LUNDANE,Norway,,59.583,7.383,836.0,01/01/1983,31/01/2023,UTC +01:00,Europe/Oslo,NOAA,,,,,,,,,,,
01442099999,BYGLANDSFJORD,Norway,,58.667,7.8,211.0,01/01/1973,13/01/2023,UTC +01:00,Europe/Oslo,NOAA,,,,,,,,,,,
01444099999,VALLE,Norway,,59.2,7.517,302.0,26/09/2011,13/01/2023,UTC +01:00,Europe/Oslo,NOAA,,,,,,,,,,,
01445099999,SKAFSA,Norway,,59.45,8.0,77.0,01/01/1973,13/11/1989,UTC +01:00,Europe/Oslo,NOAA,,,,,,,,,,,
01446099999,OYFJELL-TROVATN,Norway,,59.567,8.2,714.0,01/01/1983,31/12/1997,UTC +01:00,Europe/Oslo,NOAA,,,,,,,,,,,
01447099999,HOYDALSMO II,Norway,,59.5,8.2,562.0,21/11/2006,31/01/2023,UTC +01:00,Europe/Oslo,NOAA,,,,,,,,,,,
01448099999,OKSOY FYR,Norway,,58.067,8.05,8.0,01/01/1949,13/01/2023,UTC +01:00,Europe/Oslo,NOAA,,,,,,,,,,,
01449099999,GJERSTAD,Norway,,58.867,9.033,32.0,05/01/2012,15/01/2023,UTC +01:00,Europe/Oslo,NOAA,,,,,,,,,,,
01450099999,MOSSTRAND II,Norway,,59.833,8.183,977.0,01/01/1973,13/01/2023,UTC +01:00,Europe/Oslo,NOAA,,,,,,,,,,,
01452099999,KJEVIK,Norway,,58.204,8.085,17.4,01/05/1940,31/01/2023,UTC +01:00,Europe/Oslo,NOAA,,,,,,,,,,,
01453099999,HYNNEKLEIV,Norway,,58.6,8.417,162.0,05/01/2012,13/01/2023,UTC +01:00,Europe/Oslo,NOAA,,,,,,,,,,,
01455099999,TVEITSUND,Norway,,59.033,8.517,252.0,01/01/1973,30/01/2023,UTC +01:00,Europe/Oslo,NOAA,,,,,,,,,,,
01459099999,NELAUG,Norway,,58.65,8.633,142.0,01/01/1973,31/01/2023,UTC +01:00,Europe/Oslo,NOAA,,,,,,,,,,,
01460099999,GULLHOLMEN,Norway,,59.433,10.583,14.0,02/11/2012,13/01/2023,UTC +01:00,Europe/Oslo,NOAA,,,,,,,,,,,
01461199999,GAUSTATOPPEN,Norway,,59.85,8.65,1803.7,05/06/2014,22/10/2018,UTC +01:00,Europe/Oslo,NOAA,,,,,,,,,,,
01462099999,PORSGRUNN,Norway,,59.083,9.667,90.0,29/07/2013,12/01/2023,UTC +01:00,Europe/Oslo,NOAA,,,,,,,,,,,
01463099999,AS,Norway,,59.65,10.767,89.0,29/09/2011,12/01/2023,UTC +01:00,Europe/Oslo,NOAA,,,,,,,,,,,
01464099999,LANDVIK,Norway,,58.333,8.517,6.0,28/09/2011,31/01/2023,UTC +01:00,Europe/Oslo,NOAA,,,,,,,,,,,
01465099999,TORUNGEN FYR,Norway,,58.4,8.783,15.0,01/01/1973,31/01/2023,UTC +01:00,Europe/Oslo,NOAA,,,,,,,,,,,
01466099999,KJELLER AP,Norway,,59.967,11.033,109.0,28/09/2011,12/01/2023,UTC +01:00,Europe/Oslo,NOAA,,,,,,,,,,,
01467099999,LYNGOR FYR,Norway,,58.633,9.15,5.0,01/01/1973,20/01/2023,UTC +01:00,Europe/Oslo,NOAA,,,,,,,,,,,
01468099999,KONGSVINGER,Norway,,60.183,12.0,148.0,03/10/2006,10/01/2023,UTC +01:00,Europe/Oslo,NOAA,,,,,,,,,,,
01469099999,HONEFOSS-HOYBY,Norway,,60.167,10.25,140.0,19/07/2005,31/01/2023,UTC +01:00,Europe/Oslo,NOAA,,,,,,,,,,,
01470099999,GVARV,Norway,,59.383,9.2,93.0,01/01/1973,14/01/2023,UTC +01:00,Europe/Oslo,NOAA,,,,,,,,,,,
01470399999,NOTODDEN,Norway,,59.566,9.212,19.2,19/10/1990,31/01/2023,UTC +01:00,Europe/Oslo,NOAA,,,,,,,,,,,
01471099999,VEGGLI II,Norway,,60.05,9.15,275.0,03/10/2006,12/01/2023,UTC +01:00,Europe/Oslo,NOAA,,,,,,,,,,,
01473099999,KONGSBERG BRANNSTASJON,Norway,,59.617,9.633,173.0,10/05/2004,31/01/2023,UTC +01:00,Europe/Oslo,NOAA,,,,,,,,,,,
01474099999,LYNGDAL I NUMEDAL,Norway,,59.9,9.533,294.0,01/01/1973,31/12/1997,UTC +01:00,Europe/Oslo,NOAA,,,,,,,,,,,
01475099999,SKIEN-GEITERYGGEN,Norway,,59.183,9.567,141.0,17/07/1985,31/12/1997,UTC +01:00,Europe/Oslo,NOAA,,,,,,,,,,,
01476099999,JOMFRULAND FYR,Norway,,58.85,9.55,5.0,01/01/1973,12/01/2023,UTC +01:00,Europe/Oslo,NOAA,,,,,,,,,,,
01477099999,KONNERUD,Norway,,59.717,10.15,193.0,01/01/1973,31/01/2023,UTC +01:00,Europe/Oslo,NOAA,,,,,,,,,,,
01478099999,SVENNER LH,Norway,,58.967,10.15,15.0,01/01/1973,26/01/2023,UTC +01:00,Europe/Oslo,NOAA,,,,,,,,,,,
01480099999,DRAMMEN BERSKOG,Norway,,59.75,10.133,8.0,18/02/2005,31/01/2023,UTC +01:00,Europe/Oslo,NOAA,,,,,,,,,,,
01481099999,MELSOM,Norway,,59.233,10.35,26.0,19/05/1974,13/01/2023,UTC +01:00,Europe/Oslo,NOAA,,,,,,,,,,,
01482099999,FERDER LH,Norway,,59.033,10.517,7.7,01/01/1931,31/01/2023,UTC +01:00,Europe/Oslo,NOAA,,,,,,,,,,,
01482599999,TORP,Norway,,59.187,10.259,87.2,01/01/2005,31/01/2023,UTC +01:00,Europe/Oslo,NOAA,,,,,,,,,,,
01483099999,TORP,Norway,,59.183,10.267,88.0,01/01/1973,12/01/2023,UTC +01:00,Europe/Oslo,NOAA,,,,,,,,,,,
01484099999,AURSKOG,Norway,,59.917,11.583,128.0,01/01/1973,12/01/2023,UTC +01:00,Europe/Oslo,NOAA,,,,,,,,,,,
01484399999,OSEBERG,Norway,,59.317,10.45,15.0,19/10/1990,31/01/2023,UTC +01:00,Europe/Oslo,NOAA,,,,,,,,,,,
01485099999,DANDE-GALLEBERG,Norway,,59.617,10.217,60.0,28/09/2011,31/01/2023,UTC +01:00,Europe/Oslo,NOAA,,,,,,,,,,,
01486099999,ASKER,Norway,,59.85,10.433,163.0,10/05/2004,12/01/2023,UTC +01:00,Europe/Oslo,NOAA,,,,,,,,,,,
01487099999,ALNA,Norway,,59.933,10.833,90.0,24/09/2004,01/06/2015,UTC +01:00,Europe/Oslo,NOAA,,,,,,,,,,,
01488099999,HAKADAL,Norway,,60.117,10.833,170.0,07/04/1940,23/01/2023,UTC +01:00,Europe/Oslo,NOAA,,,,,,,,,,,
01488199999,STATFJORD B OIL PLATFORM,Norway,,61.206,1.829,142.0,23/11/2010,31/01/2023,UTC +00:00,Etc/GMT,NOAA,,,,,,,,,,,
01489099999,BJORNHOLT,Norway,,60.05,10.683,360.0,28/09/2011,13/01/2023,UTC +01:00,Europe/Oslo,NOAA,,,,,,,,,,,
01490099999,TRYVANNSHOGDA,Norway,,59.983,10.683,528.0,01/01/1973,31/01/2023,UTC +01:00,Europe/Oslo,NOAA,,,,,,,,,,,
01492099999,OSLO-BLINDERN,Norway,,59.95,10.717,97.0,03/08/1973,31/01/2023,UTC +01:00,Europe/Oslo,NOAA,,,,,,,,,,,
01493099999,SARPSBORG,Norway,,59.283,11.117,57.0,10/05/2004,31/01/2023,UTC +01:00,Europe/Oslo,NOAA,,,,,,,,,,,
01494099999,RYGGE,Norway,,59.379,10.786,53.0,01/01/1973,31/01/2023,UTC +01:00,Europe/Oslo,NOAA,,,,,,,,,,,
01495099999,STROMTANGEN FYR,Norway,,59.15,10.833,10.0,06/04/2004,31/01/2023,UTC +01:00,Europe/Oslo,NOAA,,,,,,,,,,,
01496099999,HOLAND-FOSSER,Norway,,59.817,11.483,154.0,01/01/1973,31/12/1997,UTC +01:00,Europe/Oslo,NOAA,,,,,,,,,,,
01497099999,PRESTEBAKKE,Norway,,59.0,11.533,157.0,01/01/1973,09/04/2010,UTC +01:00,Europe/Oslo,NOAA,,,,,,,,,,,
01498099999,MAGNOR,Norway,,59.967,12.217,153.0,01/01/1983,31/12/1997,UTC +01:00,Europe/Oslo,NOAA,,,,,,,,,,,
01500099999,RAKKESTAD,Norway,,59.383,11.383,100.0,08/07/2009,16/12/2009,UTC +01:00,Europe/Oslo,NOAA,,,,,,,,,,,
02000199999,LJUNGBYHED,Sweden,,56.083,13.213,42.7,10/05/2004,31/01/2023,UTC +01:00,Europe/Stockholm,NOAA,,,,,,,,,,,
02012099999,RITSEM,Sweden,,67.733,17.467,521.0,01/08/1981,31/12/1997,UTC +01:00,Europe/Stockholm,NOAA,,,,,,,,,,,
02013099999,RITSEM,Sweden,,67.733,17.467,542.7,01/06/2001,31/01/2023,UTC +01:00,Europe/Stockholm,NOAA,,,,,,,,,,,
02018099999,SUORVA,Sweden,,67.533,18.233,415.0,01/01/1935,31/12/1938,UTC +01:00,Europe/Stockholm,NOAA,,,,,,,,,,,
02019099999,KATTERJAKK A,Sweden,,68.417,18.167,516.0,27/10/2008,31/01/2023,UTC +01:00,Europe/Stockholm,NOAA,,,,,,,,,,,
02020099999,KATTERJAKK,Sweden,,68.417,18.167,517.0,01/07/1977,31/12/1997,UTC +01:00,Europe/Stockholm,NOAA,,,,,,,,,,,
02022099999,ABISKO,Sweden,,68.354,18.816,392.3,07/11/2001,31/01/2023,UTC +01:00,Europe/Stockholm,NOAA,,,,,,,,,,,
02023099999,TORNEHAMN (AUT),Sweden,,68.433,18.633,512.0,27/04/1986,26/05/2005,UTC +01:00,Europe/Stockholm,NOAA,,,,,,,,,,,
02024099999,STORA SJOFALLET,Sweden,,67.5,18.3,425.0,01/06/2001,31/01/2023,UTC +01:00,Europe/Stockholm,NOAA,,,,,,,,,,,
02026099999,ALUOKTA,Sweden,,67.317,18.883,385.0,23/10/2002,30/09/2005,UTC +01:00,Europe/Stockholm,NOAA,,,,,,,,,,,
02028099999,TARFALA - SOL,Sweden,,67.917,18.6,1144.0,28/06/2021,31/01/2023,UTC +01:00,Europe/Stockholm,NOAA,,,,,,,,,,,
02029099999,TARFALA,Sweden,,67.917,18.6,1146.0,01/06/2001,31/01/2023,UTC +01:00,Europe/Stockholm,NOAA,,,,,,,,,,,
02031099999,RENSJON,Sweden,,68.067,19.833,493.0,01/06/2001,31/01/2023,UTC +01:00,Europe/Stockholm,NOAA,,,,,,,,,,,
02032099999,TORNETRASK LAKE,Sweden,,68.217,19.717,393.0,01/07/1977,09/09/2003,UTC +01:00,Europe/Stockholm,NOAA,,,,,,,,,,,
02036099999,NIKKALUOKTA,Sweden,,67.85,19.033,468.0,01/07/1977,31/01/2023,UTC +01:00,Europe/Stockholm,NOAA,,,,,,,,,,,
02038099999,LATNIVAARA,Sweden,,67.25,20.267,453.0,01/06/2001,31/01/2023,UTC +01:00,Europe/Stockholm,NOAA,,,,,,,,,,,
02043099999,ESRANGE,Sweden,,67.933,21.067,341.0,01/03/1994,31/12/1997,UTC +01:00,Europe/Stockholm,NOAA,,,,,,,,,,,
02044099999,KIRUNA,Sweden,,67.822,20.337,459.6,01/07/1977,31/01/2023,UTC +01:00,Europe/Stockholm,NOAA,,,,,,,,,,,
02045099999,KIRUNA-SOL,Sweden,,67.833,20.417,424.0,01/04/1995,31/01/2023,UTC +01:00,Europe/Stockholm,NOAA,,,,,,,,,,,
02048099999,MALMBERGET,Sweden,,67.167,20.667,375.0,01/01/1935,05/05/1991,UTC +01:00,Europe/Stockholm,NOAA,,,,,,,,,,,
02049099999,GALLIVARE,Sweden,,67.132,20.815,313.0,03/08/1979,31/01/2023,UTC +01:00,Europe/Stockholm,NOAA,,,,,,,,,,,
02050099999,RIKSGRANSEN,Sweden,,68.417,18.117,508.0,01/01/1935,30/06/1977,UTC +01:00,Europe/Stockholm,NOAA,,,,,,,,,,,
02051099999,KARESUANDO,Switzerland,,68.45,22.5,327.1,01/01/1955,31/12/1959,UTC +02:00,Europe/Helsinki,NOAA,,,,,,,,,,,
02052099999,KVIKKJOKK         and,Sweden,,66.95,17.75,337.0,01/01/1955,30/06/1977,UTC +01:00,Europe/Stockholm,NOAA,,,,,,,,,,,
02053099999,MALMBERGET,Sweden,,67.133,20.667,365.0,01/01/1955,30/06/1977,UTC +01:00,Europe/Stockholm,NOAA,,,,,,,,,,,
02054099999,NEDRE SOPPERO,Sweden,,68.05,21.75,360.0,01/01/1955,21/04/2016,UTC +01:00,Europe/Stockholm,NOAA,,,,,,,,,,,
02055099999,NAIMAKKA,Sweden,,68.683,21.533,402.0,01/01/1973,31/01/2023,UTC +02:00,Europe/Helsinki,NOAA,,,,,,,,,,,
02056099999,STENSELE,Switzerland,,65.067,17.167,330.1,01/01/1955,31/12/1959,UTC +01:00,Europe/Stockholm,NOAA,,,,,,,,,,,
02057099999,KALLAX/LULEA (AFB),Sweden,,65.55,22.133,17.0,01/01/1955,30/06/1977,UTC +01:00,Europe/Stockholm,NOAA,,,,,,,,,,,
02058099999,HAPARANDA         and,Sweden,,65.833,24.15,7.0,01/01/1973,30/06/1977,UTC +02:00,Europe/Helsinki,NOAA,,,,,,,,,,,
02059099999,GADDEDE,Sweden,,64.5,14.133,318.0,01/01/1955,30/06/1977,UTC +01:00,Europe/Stockholm,NOAA,,,,,,,,,,,
02060099999,NAIMAKKA,Sweden,,68.683,21.533,403.0,01/01/1955,21/10/2004,UTC +02:00,Europe/Helsinki,NOAA,,,,,,,,,,,
02062099999,OSTERSUND FROSON AB,Sweden,,63.183,14.5,376.0,01/01/1955,30/06/1977,UTC +01:00,Europe/Stockholm,NOAA,,,,,,,,,,,
02063099999,ASELE,Sweden,,64.167,17.367,329.0,01/01/1955,30/06/1977,UTC +01:00,Europe/Stockholm,NOAA,,,,,,,,,,,
02064099999,SAITTAROVA,Sweden,,67.333,22.233,240.0,01/01/1973,31/01/2023,UTC +01:00,Europe/Stockholm,NOAA,,,,,,,,,,,
02065099999,SVEG              and,Sweden,,62.033,14.367,360.0,01/01/1955,30/06/1977,UTC +01:00,Europe/Stockholm,NOAA,,,,,,,,,,,
02066099999,SUNDSVALL/HARNOSAND,Sweden,,62.533,17.45,4.0,01/01/1955,30/06/1977,UTC +01:00,Europe/Stockholm,NOAA,,,,,,,,,,,
02067099999,SARNA,Sweden,,61.683,13.133,505.0,03/01/1955,30/06/1977,UTC +01:00,Europe/Stockholm,NOAA,,,,,,,,,,,
02068099999,DELSBO,Sweden,,61.8,16.567,93.0,01/01/1935,30/06/1977,UTC +01:00,Europe/Stockholm,NOAA,,,,,,,,,,,
02069099999,SODERHAMN (SWE-AFB),Sweden,,61.267,17.1,26.0,01/01/1955,30/06/1977,UTC +01:00,Europe/Stockholm,NOAA,,,,,,,,,,,
02070099999,GUSTAVSFORS       and,Sweden,,60.15,13.8,198.0,01/01/1973,30/06/1977,UTC +01:00,Europe/Stockholm,NOAA,,,,,,,,,,,
02071099999,NORRKOPING-SOL,Sweden,,58.583,16.15,58.0,01/01/1955,31/01/2023,UTC +01:00,Europe/Stockholm,NOAA,,,,,,,,,,,
02071199999,BORLANGE,Sweden,,60.417,15.517,153.0,01/01/1973,21/01/1973,UTC +01:00,Europe/Stockholm,NOAA,,,,,,,,,,,
02072099999,PARKALOMPOLO,Sweden,,67.733,22.833,313.0,01/06/2001,31/01/2023,UTC +01:00,Europe/Stockholm,NOAA,,,,,,,,,,,
02073099999,KARLSTAD          and,Sweden,,59.367,13.467,46.0,01/01/1955,30/06/1977,UTC +01:00,Europe/Stockholm,NOAA,,,,,,,,,,,
02074099999,OREBRO/EKEBY,Sweden,,59.267,15.333,33.0,01/01/1973,30/06/1977,UTC +01:00,Europe/Stockholm,NOAA,,,,,,,,,,,
02075099999,VASTERAS/HASSLO AFB,Sweden,,59.583,16.633,6.0,01/01/1973,30/06/1977,UTC +01:00,Europe/Stockholm,NOAA,,,,,,,,,,,
02076099999,UPPSALA           and,Sweden,,59.883,17.6,21.0,01/01/1973,30/06/1977,UTC +01:00,Europe/Stockholm,NOAA,,,,,,,,,,,
02077099999,STOCKHOLM/BROMMA  and,Sweden,,59.35,17.95,15.0,01/01/1955,30/06/1977,UTC +01:00,Europe/Stockholm,NOAA,,,,,,,,,,,
02079099999,SATENAS (SWE-AFB),Sweden,,58.433,12.7,54.0,01/01/1973,30/06/1977,UTC +01:00,Europe/Stockholm,NOAA,,,,,,,,,,,
02080099999,KARESUANDO,Sweden,,68.45,22.45,331.0,01/01/1935,31/12/1997,UTC +01:00,Europe/Stockholm,NOAA,,,,,,,,,,,
02081099999,KARESUANDO,Sweden,,68.45,22.45,330.0,01/01/1955,31/01/2023,UTC +01:00,Europe/Stockholm,NOAA,,,,,,,,,,,
02082099999,LANDSORT          and,Sweden,,58.75,17.867,32.0,01/01/1973,30/06/1977,UTC +01:00,Europe/Stockholm,NOAA,,,,,,,,,,,
02083099999,GOTSKA SANDON     and,Sweden,,58.4,19.2,12.0,01/01/1973,30/06/1977,UTC +01:00,Europe/Stockholm,NOAA,,,,,,,,,,,
02084099999,LANNAVAARA        and,Sweden,,68.05,22.0,360.0,01/01/1955,07/05/2004,UTC +01:00,Europe/Stockholm,NOAA,,,,,,,,,,,
02085099999,RANGEDALA (AUTO),Sweden,,57.717,13.117,259.0,01/01/1973,30/06/1977,UTC +01:00,Europe/Stockholm,NOAA,,,,,,,,,,,
02086099999,LAINIO,Sweden,,67.767,22.35,317.0,01/01/1955,17/03/2005,UTC +01:00,Europe/Stockholm,NOAA,,,,,,,,,,,
02087099999,JONKOPING         and,Sweden,,57.767,14.083,226.0,01/01/1955,30/06/1977,UTC +01:00,Europe/Stockholm,NOAA,,,,,,,,,,,
02088099999,KOMPELUSVAARA,Sweden,,67.083,22.217,263.0,01/01/1973,21/05/2002,UTC +01:00,Europe/Stockholm,NOAA,,,,,,,,,,,
02089099999,OLANDS NORRA UDDE and,Sweden,,57.367,17.1,4.0,01/01/1973,30/06/1977,UTC +01:00,Europe/Stockholm,NOAA,,,,,,,,,,,
02090099999,VISBY             and,Sweden,,57.667,18.35,51.0,01/01/1955,30/06/1977,UTC +01:00,Europe/Stockholm,NOAA,,,,,,,,,,,
02091099999,VISBY-SOL,Sweden,,57.667,18.35,49.0,01/01/1973,31/01/2023,UTC +01:00,Europe/Stockholm,NOAA,,,,,,,,,,,
02092099999,MUODOSLOMPOLO,Sweden,,67.95,23.467,240.0,01/01/1973,17/09/2004,UTC +01:00,Europe/Stockholm,NOAA,,,,,,,,,,,
02093099999,VAXJO             and,Sweden,,56.867,14.8,166.0,01/01/1973,30/06/1977,UTC +01:00,Europe/Stockholm,NOAA,,,,,,,,,,,
02094099999,UNGSKAR,Sweden,,56.033,15.8,1.0,01/01/1955,30/06/1977,UTC +01:00,Europe/Stockholm,NOAA,,,,,,,,,,,
02095099999,PAJALA,Sweden,,67.2,23.383,171.0,01/01/1955,31/01/2023,UTC +01:00,Europe/Stockholm,NOAA,,,,,,,,,,,
02096099999,PAJALA,Sweden,,67.217,23.4,168.0,01/01/1955,31/12/1997,UTC +01:00,Europe/Stockholm,NOAA,,,,,,,,,,,
02097099999,MALMO /BULLTOFTON,Switzerland,,55.6,13.067,14.9,01/01/1955,02/07/1974,UTC +01:00,Europe/Stockholm,NOAA,,,,,,,,,,,
02098099999,MALMO/STURUP,Sweden,,55.55,13.367,72.0,01/01/1973,30/06/1977,UTC +01:00,Europe/Stockholm,NOAA,,,,,,,,,,,
02099099999,YSTAD             and,Sweden,,55.433,13.833,34.0,01/01/1973,30/06/1977,UTC +01:00,Europe/Stockholm,NOAA,,,,,,,,,,,
02100099999,NAIMAKKA,Sweden,,68.683,21.533,403.0,01/01/1973,30/06/1977,UTC +02:00,Europe/Helsinki,NOAA,,,,,,,,,,,
02101099999,HEMAVAN,Sweden,,65.806,15.083,458.1,02/01/1973,31/01/2023,UTC +01:00,Europe/Stockholm,NOAA,,,,,,,,,,,
02102099999,STEKENJOKK,Sweden,,65.1,14.517,1036.0,01/11/1958,31/01/2023,UTC +01:00,Europe/Stockholm,NOAA,,,,,,,,,,,
02103099999,HEMAVAN-GIEREVARTO,Sweden,,65.783,15.067,793.0,18/11/1987,31/01/2023,UTC +01:00,Europe/Stockholm,NOAA,,,,,,,,,,,
02104099999,HEMAVAN,Sweden,,65.817,15.083,485.0,01/07/1977,31/12/1997,UTC +01:00,Europe/Stockholm,NOAA,,,,,,,,,,,
02105099999,ABELVATTNET,Sweden,,65.533,14.983,670.0,01/01/1973,21/02/2004,UTC +01:00,Europe/Stockholm,NOAA,,,,,,,,,,,
02106099999,JOKKMOKK (SWE-AFB),Sweden,,66.6,19.833,256.0,01/01/1973,30/06/1977,UTC +01:00,Europe/Stockholm,NOAA,,,,,,,,,,,
02108099999,KLIMPFJALL,Sweden,,65.067,14.8,593.0,01/07/1977,21/09/2005,UTC +01:00,Europe/Stockholm,NOAA,,,,,,,,,,,
02109099999,ABRAUR,Sweden,,65.9,19.1,342.0,02/01/1973,30/06/1977,UTC +01:00,Europe/Stockholm,NOAA,,,,,,,,,,,
02110099999,GIELAS,Sweden,,65.333,15.067,577.0,18/05/1987,31/01/2023,UTC +01:00,Europe/Stockholm,NOAA,,,,,,,,,,,
02111099999,VIDSEL (SWE-AFB),Sweden,,65.867,20.133,180.0,02/01/1973,30/06/1977,UTC +01:00,Europe/Stockholm,NOAA,,,,,,,,,,,
02112099999,SYLARNA,Sweden,,63.05,12.267,1035.0,01/07/1977,21/08/2004,UTC +01:00,Europe/Stockholm,NOAA,,,,,,,,,,,
02114099999,NORRAKER,Sweden,,64.45,15.6,346.0,07/08/1975,30/06/1977,UTC +01:00,Europe/Stockholm,NOAA,,,,,,,,,,,
02115099999,STORLIEN-VISJOVALEand,Sweden,,63.3,12.133,640.0,01/01/1955,30/06/1977,UTC +01:00,Europe/Stockholm,NOAA,,,,,,,,,,,
02116099999,MORSIL,Sweden,,63.317,13.65,400.0,01/01/1973,21/02/2005,UTC +01:00,Europe/Stockholm,NOAA,,,,,,,,,,,
02117099999,NORDMALING,Sweden,,63.567,19.5,6.0,01/01/1955,30/06/1977,UTC +01:00,Europe/Stockholm,NOAA,,,,,,,,,,,
02118099999,DIKANAS/SKANSNAS,Sweden,,65.317,16.033,525.0,01/01/1973,31/12/1997,UTC +01:00,Europe/Stockholm,NOAA,,,,,,,,,,,
02119099999,KVIKKJOKK ARRENJARKA,Sweden,,66.883,18.017,320.0,01/01/1973,31/01/2023,UTC +01:00,Europe/Stockholm,NOAA,,,,,,,,,,,
02120099999,KVIKKJOKK-ARRENJARKA,Sweden,,66.883,18.017,315.0,01/01/1935,31/12/1997,UTC +01:00,Europe/Stockholm,NOAA,,,,,,,,,,,
02120599999,STORUMAN,Sweden,,64.95,17.7,279.0,19/04/2005,31/01/2023,UTC +01:00,Europe/Stockholm,NOAA,,,,,,,,,,,
02121099999,MIERKENIS,Sweden,,66.683,16.117,615.0,01/06/2001,31/01/2023,UTC +01:00,Europe/Stockholm,NOAA,,,,,,,,,,,
02122099999,STENUDDEN,Sweden,,66.533,17.667,453.0,02/08/1979,21/03/2004,UTC +01:00,Europe/Stockholm,NOAA,,,,,,,,,,,
02123099999,JAKKVIK,Sweden,,66.317,17.1,552.0,01/01/1973,21/04/2016,UTC +01:00,Europe/Stockholm,NOAA,,,,,,,,,,,
02124099999,ARJEPLOG,Sweden,,66.05,17.833,432.0,05/04/1977,31/01/2023,UTC +01:00,Europe/Stockholm,NOAA,,,,,,,,,,,
02125099999,OSTMARK,Sweden,,60.317,12.7,178.0,01/01/1973,30/06/1977,UTC +01:00,Europe/Stockholm,NOAA,,,,,,,,,,,
02126099999,GUNNARN,Sweden,,65.017,17.7,251.0,01/01/1973,12/12/2021,UTC +01:00,Europe/Stockholm,NOAA,,,,,,,,,,,
02127099999,STENSELE,Sweden,,65.067,17.167,327.0,03/01/1931,23/08/2005,UTC +01:00,Europe/Stockholm,NOAA,,,,,,,,,,,
02128099999,GUNNARN,Sweden,,65.0,17.7,283.0,01/01/1973,31/12/1997,UTC +01:00,Europe/Stockholm,NOAA,,,,,,,,,,,
02129099999,GUNNARN SOL (AUT),Sweden,,64.967,17.7,278.0,01/01/1973,25/11/1986,UTC +01:00,Europe/Stockholm,NOAA,,,,,,,,,,,
02130099999,ROPARUDDEN,Sweden,,66.483,16.417,481.0,01/01/1973,21/04/2016,UTC +01:00,Europe/Stockholm,NOAA,,,,,,,,,,,
02131099999,ARVIKA,Sweden,,59.667,12.583,75.0,01/01/1973,30/06/1977,UTC +01:00,Europe/Stockholm,NOAA,,,,,,,,,,,
02133099999,SNAVLUNDA,Sweden,,58.967,14.9,144.0,01/01/1973,30/06/1977,UTC +01:00,Europe/Stockholm,NOAA,,,,,,,,,,,
02135099999,BURESJON,Sweden,,65.567,17.867,393.0,01/01/1973,31/01/2023,UTC +01:00,Europe/Stockholm,NOAA,,,,,,,,,,,
02136099999,STORBERG,Sweden,,65.5,18.95,454.0,19/05/2003,29/08/2004,UTC +01:00,Europe/Stockholm,NOAA,,,,,,,,,,,
02138099999,GRUNDKALLEN,Sweden,,60.5,18.867,23.0,01/01/1973,30/06/1977,UTC +01:00,Europe/Stockholm,NOAA,,,,,,,,,,,
02141099999,TJAKAAPE,Sweden,,66.317,19.217,582.0,01/01/1973,31/01/2023,UTC +01:00,Europe/Stockholm,NOAA,,,,,,,,,,,
02142099999,JOKKMOKK,Sweden,,66.496,20.147,275.5,01/07/1977,31/12/1997,UTC +01:00,Europe/Stockholm,NOAA,,,,,,,,,,,
02143099999,PALJAMYREN,Sweden,,66.217,19.133,570.0,01/01/1973,31/07/2003,UTC +01:00,Europe/Stockholm,NOAA,,,,,,,,,,,
02144099999,ABRAUR,Sweden,,65.983,18.933,374.0,01/07/1977,26/06/2004,UTC +01:00,Europe/Stockholm,NOAA,,,,,,,,,,,
02145099999,TELLEJAUR,Sweden,,66.15,19.633,436.0,25/07/2003,22/03/2004,UTC +01:00,Europe/Stockholm,NOAA,,,,,,,,,,,
02146099999,VAJMAT,Sweden,,66.5,19.683,324.0,01/07/2001,21/04/2016,UTC +01:00,Europe/Stockholm,NOAA,,,,,,,,,,,
02147099999,MALA-BRANNAN,Sweden,,65.15,18.6,363.0,01/01/1973,31/01/2023,UTC +01:00,Europe/Stockholm,NOAA,,,,,,,,,,,
02148099999,NORRKOPING/BRAVALLA,Sweden,,58.617,16.117,27.0,01/01/1973,30/06/1977,UTC +01:00,Europe/Stockholm,NOAA,,,,,,,,,,,
02149099999,ARVIDSJAUR,Sweden,,65.6,19.267,384.0,01/07/2001,31/01/2023,UTC +01:00,Europe/Stockholm,NOAA,,,,,,,,,,,
02150099999,NYKOPING/SKAVST AFB,Sweden,,58.783,16.917,42.0,01/01/1973,30/06/1977,UTC +01:00,Europe/Stockholm,NOAA,,,,,,,,,,,
02151099999,JOKKMOKK FPL,Sweden,,66.483,20.167,275.0,01/01/1973,31/01/2023,UTC +01:00,Europe/Stockholm,NOAA,,,,,,,,,,,
02152099999,SUDOK,Sweden,,66.3,20.417,174.0,01/01/1973,19/09/2005,UTC +01:00,Europe/Stockholm,NOAA,,,,,,,,,,,
02154099999,VIDSEL,Sweden,,65.875,20.15,182.0,01/07/1977,31/01/2023,UTC +01:00,Europe/Stockholm,NOAA,,,,,,,,,,,
02155099999,HAGSHULT (SWE-AFB),Sweden,,57.3,14.133,169.0,01/01/1955,30/06/1977,UTC +01:00,Europe/Stockholm,NOAA,,,,,,,,,,,
02156099999,STENSJON (AUT),Sweden,,63.967,13.717,680.0,01/07/1977,28/10/2003,UTC +01:00,Europe/Stockholm,NOAA,,,,,,,,,,,
02158099999,FALLFORS,Sweden,,65.133,20.783,190.0,26/07/1979,07/08/2002,UTC +01:00,Europe/Stockholm,NOAA,,,,,,,,,,,
02159099999,FALLFORS,Sweden,,65.12,20.77,195.0,01/08/1996,31/12/1997,UTC +01:00,Europe/Stockholm,NOAA,,,,,,,,,,,
02160099999,NATTAVAARA,Sweden,,66.75,21.05,327.0,29/08/2001,07/03/2005,UTC +01:00,Europe/Stockholm,NOAA,,,,,,,,,,,
02161099999,NATTAVAARA,Sweden,,66.75,20.933,327.0,01/01/1973,31/01/2023,UTC +01:00,Europe/Stockholm,NOAA,,,,,,,,,,,
02162099999,MARKARYD,Sweden,,56.467,13.65,118.0,01/01/1973,30/06/1977,UTC +01:00,Europe/Stockholm,NOAA,,,,,,,,,,,
02163099999,LJUNGBYHED(SWE-AFB),Sweden,,56.083,13.233,43.0,01/01/1973,30/06/1977,UTC +01:00,Europe/Stockholm,NOAA,,,,,,,,,,,
02164099999,PALKEM,Sweden,,66.383,21.633,263.0,01/05/1973,19/07/2003,UTC +01:00,Europe/Stockholm,NOAA,,,,,,,,,,,
02166099999,RONNEBY (SWE-AFB),Sweden,,56.267,15.283,58.0,01/01/1973,30/06/1977,UTC +01:00,Europe/Stockholm,NOAA,,,,,,,,,,,
02167099999,FALSTERBO (LGT-H),Sweden,,55.383,12.817,5.0,01/01/1973,30/06/1977,UTC +01:00,Europe/Stockholm,NOAA,,,,,,,,,,,
02169099999,HEDEN,Sweden,,65.867,21.45,36.0,30/05/2002,01/08/2002,UTC +01:00,Europe/Stockholm,NOAA,,,,,,,,,,,
02170099999,SAVAST,Sweden,,65.75,21.767,12.0,17/11/2010,21/04/2016,UTC +01:00,Europe/Stockholm,NOAA,,,,,,,,,,,
02171099999,BODEN,Sweden,,65.817,21.633,18.0,02/08/1979,31/01/2023,UTC +01:00,Europe/Stockholm,NOAA,,,,,,,,,,,
02172099999,ALVSBYN,Sweden,,65.683,20.967,50.0,10/07/1979,23/11/1979,UTC +01:00,Europe/Stockholm,NOAA,,,,,,,,,,,
02173099999,ALVSBYN,Sweden,,65.667,21.067,43.0,01/07/2001,31/01/2023,UTC +01:00,Europe/Stockholm,NOAA,,,,,,,,,,,
02174099999,LAKATRASK,Sweden,,66.283,21.133,186.0,01/07/2001,31/01/2023,UTC +01:00,Europe/Stockholm,NOAA,,,,,,,,,,,
02176099999,PITE-RONNSKAR,Sweden,,65.033,21.567,4.0,01/09/1997,31/01/2023,UTC +01:00,Europe/Stockholm,NOAA,,,,,,,,,,,
02181099999,OVERKALIX SVARTBYN,Sweden,,66.267,22.85,62.0,01/08/1996,31/01/2023,UTC +01:00,Europe/Stockholm,NOAA,,,,,,,,,,,
02182099999,OVERKALIX,Sweden,,66.267,22.833,47.0,03/08/1979,02/06/2002,UTC +01:00,Europe/Stockholm,NOAA,,,,,,,,,,,
02183099999,LULEA-SOL,Sweden,,65.55,22.117,32.0,02/08/2004,31/01/2023,UTC +01:00,Europe/Stockholm,NOAA,,,,,,,,,,,
02184099999,PAHAROVA,Sweden,,66.817,22.333,229.0,01/07/2001,31/01/2023,UTC +01:00,Europe/Stockholm,NOAA,,,,,,,,,,,
02185099999,LULEA-KALLAX,Sweden,,65.55,22.133,34.0,02/04/2001,08/10/2001,UTC +01:00,Europe/Stockholm,NOAA,,,,,,,,,,,
02186099999,KALLAX,Sweden,,65.544,22.122,19.8,01/07/1977,31/01/2023,UTC +01:00,Europe/Stockholm,NOAA,,,,,,,,,,,
02188099999,RODKALLEN,Sweden,,65.317,22.383,2.0,01/01/1973,31/01/2023,UTC +01:00,Europe/Stockholm,NOAA,,,,,,,,,,,
02190099999,KORPILOMBOLO,Sweden,,66.85,23.033,180.0,16/07/2001,02/04/2004,UTC +01:00,Europe/Stockholm,NOAA,,,,,,,,,,,
02191099999,STORON,Sweden,,65.7,23.1,4.0,01/07/2001,31/01/2023,UTC +01:00,Europe/Stockholm,NOAA,,,,,,,,,,,
02196099999,HAPARANDA,Sweden,,65.833,24.15,6.0,01/01/1931,31/12/1997,UTC +02:00,Europe/Helsinki,NOAA,,,,,,,,,,,
02197099999,HAPARANDA,Sweden,,65.817,24.117,16.0,27/10/2008,31/01/2023,UTC +01:00,Europe/Stockholm,NOAA,,,,,,,,,,,
02199099999,YLINENJARVI,Sweden,,66.617,23.467,132.0,01/07/2001,31/01/2023,UTC +01:00,Europe/Stockholm,NOAA,,,,,,,,,,,
02200099999,EDEVIK,Sweden,,63.983,12.867,425.0,01/07/1977,25/12/2004,UTC +01:00,Europe/Stockholm,NOAA,,,,,,,,,,,
02202099999,TORNETRASK LAKE,Sweden,,68.217,19.717,393.0,01/01/1973,30/06/1977,UTC +01:00,Europe/Stockholm,NOAA,,,,,,,,,,,
02204099999,NIKKALUOKTA,Sweden,,67.85,19.033,470.0,01/01/1973,30/06/1977,UTC +01:00,Europe/Stockholm,NOAA,,,,,,,,,,,
02205099999,STORLIEN SOL,Sweden,,63.3,12.117,647.0,28/06/2021,31/01/2023,UTC +01:00,Europe/Stockholm,NOAA,,,,,,,,,,,
02206099999,STORLIEN-STORVALLEN,Sweden,,63.283,12.133,583.0,01/01/1935,31/12/1997,UTC +01:00,Europe/Stockholm,NOAA,,,,,,,,,,,
02207099999,STORLIEN-VISJOVALEN A,Sweden,,63.283,12.117,583.0,01/01/1973,31/01/2023,UTC +01:00,Europe/Stockholm,NOAA,,,,,,,,,,,
02209099999,SYLARNA,Sweden,,63.05,12.283,1030.0,01/01/1973,31/01/2023,UTC +01:00,Europe/Stockholm,NOAA,,,,,,,,,,,
02210099999,BLAHAMMAREN,Sweden,,63.183,12.167,1090.0,20/09/2010,31/01/2023,UTC +01:00,Europe/Stockholm,NOAA,,,,,,,,,,,
02215099999,ARESKUTAN,Sweden,,63.433,13.083,1280.0,01/09/1997,31/12/1997,UTC +01:00,Europe/Stockholm,NOAA,,,,,,,,,,,
02216099999,MATTMAR,Sweden,,63.3,13.883,365.0,01/01/1973,21/04/2016,UTC +01:00,Europe/Stockholm,NOAA,,,,,,,,,,,
02217099999,ARE,Sweden,,63.367,13.167,435.0,01/07/2001,21/04/2016,UTC +01:00,Europe/Stockholm,NOAA,,,,,,,,,,,
02218099999,MORSIL,Sweden,,63.317,13.65,400.0,05/01/1973,24/09/2005,UTC +01:00,Europe/Stockholm,NOAA,,,,,,,,,,,
02219099999,GADDEDE A,Sweden,,64.5,14.217,550.0,01/03/2008,31/01/2023,UTC +01:00,Europe/Stockholm,NOAA,,,,,,,,,,,
02221099999,KORSVATTNET,Sweden,,63.833,13.5,717.0,01/12/1997,31/01/2023,UTC +01:00,Europe/Stockholm,NOAA,,,,,,,,,,,
02222099999,GADDEDE,Sweden,,64.5,14.167,330.0,01/07/1977,31/12/1997,UTC +01:00,Europe/Stockholm,NOAA,,,,,,,,,,,
02223099999,STEMSJON (AUT),Sweden,,63.967,13.717,680.0,01/01/1973,30/06/1977,UTC +01:00,Europe/Stockholm,NOAA,,,,,,,,,,,
02224099999,FOLLINGE-VAGSKALET,Sweden,,63.767,14.433,475.0,09/06/2002,09/06/2002,UTC +01:00,Europe/Stockholm,NOAA,,,,,,,,,,,
02226099999,OSTERSUND,Sweden,,63.2,14.5,376.0,01/01/1935,31/01/2023,UTC +01:00,Europe/Stockholm,NOAA,,,,,,,,,,,
02227199999,KALIX,Sweden,,65.85,23.133,7.0,07/03/2007,07/03/2007,UTC +01:00,Europe/Stockholm,NOAA,,,,,,,,,,,
02228099999,EDEVIK,Sweden,,64.05,12.95,453.0,01/01/1973,30/06/1977,UTC +01:00,Europe/Stockholm,NOAA,,,,,,,,,,,
02229099999,OSTERSUND-SOL,Sweden,,63.2,14.483,374.0,01/09/1997,31/01/2023,UTC +01:00,Europe/Stockholm,NOAA,,,,,,,,,,,
02230099999,GUBBHOGEN,Sweden,,64.217,15.55,310.0,01/01/1973,31/01/2023,UTC +01:00,Europe/Stockholm,NOAA,,,,,,,,,,,
02231099999,FOLLINGE,Sweden,,63.683,14.6,362.0,01/07/2001,31/01/2023,UTC +01:00,Europe/Stockholm,NOAA,,,,,,,,,,,
02232099999,NORRAKER,Sweden,,64.433,15.633,346.0,01/07/1977,03/09/2004,UTC +01:00,Europe/Stockholm,NOAA,,,,,,,,,,,
02233099999,SAXNAS,Sweden,,64.967,15.383,545.0,01/07/2001,21/04/2016,UTC +01:00,Europe/Stockholm,NOAA,,,,,,,,,,,
02234099999,STROMSUND,Sweden,,63.867,15.583,373.0,05/01/1979,30/11/1995,UTC +01:00,Europe/Stockholm,NOAA,,,,,,,,,,,
02236099999,HALLHAXASEN,Sweden,,63.767,15.333,376.0,01/07/1977,31/01/2023,UTC +01:00,Europe/Stockholm,NOAA,,,,,,,,,,,
02242099999,HOTING,Sweden,,64.083,16.233,241.0,01/01/1973,31/01/2023,UTC +01:00,Europe/Stockholm,NOAA,,,,,,,,,,,
02243099999,JUNSELE,Sweden,,63.683,16.95,214.0,01/01/1973,31/01/2023,UTC +01:00,Europe/Stockholm,NOAA,,,,,,,,,,,
02244099999,JUNSELE,Sweden,,63.683,16.95,217.0,01/02/1996,31/12/1997,UTC +01:00,Europe/Stockholm,NOAA,,,,,,,,,,,
02245099999,VILHELMINA,Sweden,,64.583,16.85,349.0,01/08/1996,31/01/2023,UTC +01:00,Europe/Stockholm,NOAA,,,,,,,,,,,
02245599999,LYCKSELE,Sweden,,64.548,18.716,214.9,08/04/1998,31/01/2023,UTC +01:00,Europe/Stockholm,NOAA,,,,,,,,,,,
02247099999,KRANGEDE,Sweden,,63.15,16.167,184.0,01/01/1973,31/01/2023,UTC +01:00,Europe/Stockholm,NOAA,,,,,,,,,,,
02248099999,KRANGEDE,Sweden,,63.167,16.167,223.0,04/07/1977,19/06/1997,UTC +01:00,Europe/Stockholm,NOAA,,,,,,,,,,,
02251099999,STORSJO KAPELL,Sweden,,62.8,13.067,575.0,01/01/1973,30/06/1977,UTC +01:00,Europe/Stockholm,NOAA,,,,,,,,,,,
02252099999,IDVATTNET,Sweden,,64.45,17.083,353.0,01/02/1983,22/09/2004,UTC +01:00,Europe/Stockholm,NOAA,,,,,,,,,,,
02254099999,ASELE,Sweden,,64.167,17.317,308.0,01/07/1977,31/01/2023,UTC +01:00,Europe/Stockholm,NOAA,,,,,,,,,,,
02255099999,FRANSTA,Sweden,,62.5,16.183,75.0,01/01/1973,30/06/1977,UTC +01:00,Europe/Stockholm,NOAA,,,,,,,,,,,
02256099999,RISTRASK,Sweden,,64.733,17.4,575.0,01/07/2001,21/04/2016,UTC +01:00,Europe/Stockholm,NOAA,,,,,,,,,,,
02257099999,FLOTNINGEN,Sweden,,61.85,12.267,670.0,01/01/1973,30/06/1977,UTC +01:00,Europe/Stockholm,NOAA,,,,,,,,,,,
02258099999,VINDEL-BJORKHEDEN,Sweden,,65.817,16.717,352.0,04/11/2001,16/12/2004,UTC +01:00,Europe/Stockholm,NOAA,,,,,,,,,,,
02259099999,KRAMFORS SOLLEFTEA,Sweden,,63.049,17.769,10.4,01/07/1977,31/01/2023,UTC +01:00,Europe/Stockholm,NOAA,,,,,,,,,,,
02260099999,VASTMARKUM,Sweden,,63.133,18.25,143.0,01/01/1973,31/01/2023,UTC +01:00,Europe/Stockholm,NOAA,,,,,,,,,,,
02261099999,LYCKSELE,Sweden,,64.55,18.717,211.0,01/01/1973,31/01/2023,UTC +01:00,Europe/Stockholm,NOAA,,,,,,,,,,,
02262099999,VUOGGATJALME,Sweden,,66.567,16.35,500.0,01/01/1973,06/03/2004,UTC +01:00,Europe/Stockholm,NOAA,,,,,,,,,,,
02263099999,FREDRIKA,Sweden,,64.083,18.367,327.0,01/07/2001,31/01/2023,UTC +01:00,Europe/Stockholm,NOAA,,,,,,,,,,,
02264099999,FREDRIKA,Sweden,,64.083,18.417,300.0,01/01/1973,28/10/2002,UTC +01:00,Europe/Stockholm,NOAA,,,,,,,,,,,
02265099999,HEMLING,Sweden,,63.65,18.55,183.0,01/07/2001,31/01/2023,UTC +01:00,Europe/Stockholm,NOAA,,,,,,,,,,,
02266099999,VILHELMINA (AUTO),Sweden,,64.583,16.85,349.0,08/06/2002,08/06/2002,UTC +01:00,Europe/Stockholm,NOAA,,,,,,,,,,,
02267099999,ORNSKOLDSVIK,Sweden,,63.408,18.99,107.9,02/08/1979,31/01/2023,UTC +01:00,Europe/Stockholm,NOAA,,,,,,,,,,,
02269099999,SKAGSUDDE,Sweden,,63.183,19.017,11.0,01/08/1996,31/01/2023,UTC +01:00,Europe/Stockholm,NOAA,,,,,,,,,,,
02270099999,NORSJO,Sweden,,64.917,19.467,301.0,14/06/2001,14/09/2003,UTC +01:00,Europe/Stockholm,NOAA,,,,,,,,,,,
02271099999,NORSJO,Sweden,,64.933,19.383,310.0,01/07/2001,31/01/2023,UTC +01:00,Europe/Stockholm,NOAA,,,,,,,,,,,
02274099999,VINDELN,Sweden,,64.217,19.717,206.0,01/05/1996,31/12/1997,UTC +01:00,Europe/Stockholm,NOAA,,,,,,,,,,,
02276099999,NORDMALING,Sweden,,63.567,19.5,5.0,01/07/1977,23/04/1987,UTC +01:00,Europe/Stockholm,NOAA,,,,,,,,,,,
02278099999,KRANGEDE (AUTO),Sweden,,63.15,16.167,184.0,01/07/1977,15/10/2004,UTC +01:00,Europe/Stockholm,NOAA,,,,,,,,,,,
02279099999,SKILLINGMARK,Sweden,,59.867,11.967,130.0,01/01/1973,30/06/1977,UTC +01:00,Europe/Stockholm,NOAA,,,,,,,,,,,
02280099999,BLOMSKOG,Sweden,,59.283,12.05,110.0,01/01/1973,30/06/1977,UTC +01:00,Europe/Stockholm,NOAA,,,,,,,,,,,
02281099999,AMAL,Sweden,,59.05,12.7,60.0,01/01/1973,30/06/1977,UTC +01:00,Europe/Stockholm,NOAA,,,,,,,,,,,
02282099999,PETISTRASK,Sweden,,64.567,19.7,258.0,01/07/2001,31/01/2023,UTC +01:00,Europe/Stockholm,NOAA,,,,,,,,,,,
02283099999,UMEA-SOL,Sweden,,63.817,20.233,22.0,12/07/1984,12/07/1984,UTC +01:00,Europe/Stockholm,NOAA,,,,,,,,,,,
02284099999,JARNASKLUBB,Sweden,,63.433,19.683,7.0,01/01/1973,31/01/2023,UTC +01:00,Europe/Stockholm,NOAA,,,,,,,,,,,
02286099999,UMEA,Sweden,,63.792,20.283,7.3,01/07/1977,31/01/2023,UTC +01:00,Europe/Stockholm,NOAA,,,,,,,,,,,
02286199999,SODERHAMN,Sweden,,61.267,17.1,36.0,06/07/2004,03/01/2012,UTC +01:00,Europe/Stockholm,NOAA,,,,,,,,,,,
02287099999,HOLMON,Sweden,,63.8,20.867,8.0,24/07/2005,31/01/2023,UTC +01:00,Europe/Stockholm,NOAA,,,,,,,,,,,
02288099999,HOLMOGADD,Sweden,,63.6,20.75,6.0,01/01/1935,31/12/1997,UTC +01:00,Europe/Stockholm,NOAA,,,,,,,,,,,
02289099999,SYDOSTBROTTEN (LH),Sweden,,63.333,20.183,25.0,01/01/1973,20/09/2001,UTC +01:00,Europe/Stockholm,NOAA,,,,,,,,,,,
02290099999,FURUOGRUND        and,Sweden,,64.917,21.233,10.0,10/02/1975,14/01/2003,UTC +01:00,Europe/Stockholm,NOAA,,,,,,,,,,,
02292099999,HOKMARKSBERGET,Sweden,,64.433,21.283,105.0,01/07/2001,21/04/2016,UTC +01:00,Europe/Stockholm,NOAA,,,,,,,,,,,
02293099999,SKELLEFTEA,Sweden,,64.625,21.077,47.9,02/08/1979,31/01/2023,UTC +01:00,Europe/Stockholm,NOAA,,,,,,,,,,,
02296099999,BJUROKLUBB (LGT-H),Sweden,,64.483,21.583,36.0,01/01/1935,21/12/1997,UTC +01:00,Europe/Stockholm,NOAA,,,,,,,,,,,
02297099999,BJUROKLUBB,Sweden,,64.483,21.583,43.0,01/06/2001,31/01/2023,UTC +01:00,Europe/Stockholm,NOAA,,,,,,,,,,,
02298099999,SVARTEBORG,Sweden,,58.567,11.55,70.0,01/01/1973,30/06/1977,UTC +01:00,Europe/Stockholm,NOAA,,,,,,,,,,,
02300099999,FJALLNAS,Sweden,,62.583,12.217,780.0,23/05/2002,02/01/2006,UTC +01:00,Europe/Stockholm,NOAA,,,,,,,,,,,
02302099999,STORBO,Sweden,,61.833,12.283,665.0,01/07/2001,21/04/2016,UTC +01:00,Europe/Stockholm,NOAA,,,,,,,,,,,
02303099999,FLATRUET,Sweden,,62.733,12.733,995.0,01/07/2001,21/04/2016,UTC +01:00,Europe/Stockholm,NOAA,,,,,,,,,,,
02304099999,FLOTNINGEN,Sweden,,61.85,12.267,670.0,01/07/1977,23/01/2004,UTC +01:00,Europe/Stockholm,NOAA,,,,,,,,,,,
02305099999,NASHUVUD,Sweden,,58.9,13.25,50.0,01/01/1973,30/06/1977,UTC +01:00,Europe/Stockholm,NOAA,,,,,,,,,,,
02306099999,RORBACKSNAS,Sweden,,61.133,12.817,465.0,01/07/1977,08/12/2017,UTC +01:00,Europe/Stockholm,NOAA,,,,,,,,,,,
02307099999,IDRE FJALL,Sweden,,61.883,12.85,869.0,01/01/1973,21/09/2022,UTC +01:00,Europe/Stockholm,NOAA,,,,,,,,,,,
02308099999,TANNAS,Sweden,,62.45,12.667,724.0,01/08/1996,31/01/2023,UTC +01:00,Europe/Stockholm,NOAA,,,,,,,,,,,
02310099999,STORSJO KAPELL,Sweden,,62.8,13.067,583.0,01/07/1977,23/01/2005,UTC +01:00,Europe/Stockholm,NOAA,,,,,,,,,,,
02311099999,HOGFJALLSHOTELLET,Sweden,,61.15,13.117,744.0,01/07/2001,21/04/2016,UTC +01:00,Europe/Stockholm,NOAA,,,,,,,,,,,
02312099999,MALEXANDER,Sweden,,58.067,15.217,153.0,01/01/1973,30/06/1977,UTC +01:00,Europe/Stockholm,NOAA,,,,,,,,,,,
02313099999,VISINGSO,Sweden,,58.1,14.4,110.0,09/12/1973,09/12/1973,UTC +01:00,Europe/Stockholm,NOAA,,,,,,,,,,,
02314099999,LOFSDALEN,Sweden,,62.1,13.25,610.0,29/07/2001,23/05/2005,UTC +01:00,Europe/Stockholm,NOAA,,,,,,,,,,,
02314199999,TYLLINGE,Sweden,,58.017,16.067,100.0,01/08/2016,09/09/2019,UTC +01:00,Europe/Stockholm,NOAA,,,,,,,,,,,
02316099999,SARNA,Sweden,,61.7,13.183,425.0,01/01/1935,31/01/2023,UTC +01:00,Europe/Stockholm,NOAA,,,,,,,,,,,
02317099999,DRAVAGEN,Sweden,,62.1,13.617,566.0,01/07/2001,31/01/2023,UTC +01:00,Europe/Stockholm,NOAA,,,,,,,,,,,
02318099999,TANDADALEN,Sweden,,61.167,13.017,830.0,01/01/1973,02/09/1997,UTC +01:00,Europe/Stockholm,NOAA,,,,,,,,,,,
02319099999,BORTNAN,Sweden,,62.75,13.85,467.0,01/07/2001,31/01/2023,UTC +01:00,Europe/Stockholm,NOAA,,,,,,,,,,,
02319199999,AMBJORNARP,Sweden,,57.417,13.283,220.0,26/07/2016,26/03/2020,UTC +01:00,Europe/Stockholm,NOAA,,,,,,,,,,,
02320199999,TINGHALLA,Sweden,,57.967,13.85,278.0,26/07/2016,26/03/2020,UTC +01:00,Europe/Stockholm,NOAA,,,,,,,,,,,
02321099999,ALVDALEN,Sweden,,61.25,14.033,253.0,01/01/1973,31/01/2023,UTC +01:00,Europe/Stockholm,NOAA,,,,,,,,,,,
02323099999,KLOVSJO,Sweden,,62.533,14.2,550.0,24/11/2001,23/02/2005,UTC +01:00,Europe/Stockholm,NOAA,,,,,,,,,,,
02324099999,SVEG,Sweden,,62.017,14.183,363.0,01/01/1937,29/12/1997,UTC +01:00,Europe/Stockholm,NOAA,,,,,,,,,,,
02325099999,KLOVSJOHOJDEN,Sweden,,62.5,14.15,803.0,01/01/1973,31/01/2023,UTC +01:00,Europe/Stockholm,NOAA,,,,,,,,,,,
02326099999,FREDRIKA,Sweden,,64.083,18.417,300.0,01/07/1977,21/12/2004,UTC +01:00,Europe/Stockholm,NOAA,,,,,,,,,,,
02327099999,SVEG A,Sweden,,62.05,14.4,362.0,29/09/2009,31/01/2023,UTC +01:00,Europe/Stockholm,NOAA,,,,,,,,,,,
02328099999,KRAMFORS (SWE-AFB),Sweden,,63.05,17.767,19.0,17/12/2002,02/11/2004,UTC +01:00,Europe/Stockholm,NOAA,,,,,,,,,,,
02329099999,HAMRA,Sweden,,61.667,15.0,455.0,01/01/1973,31/01/2023,UTC +01:00,Europe/Stockholm,NOAA,,,,,,,,,,,
02330099999,HUNGE,Sweden,,62.75,15.1,342.0,27/06/1974,08/10/2005,UTC +01:00,Europe/Stockholm,NOAA,,,,,,,,,,,
02331099999,HUNGE,Sweden,,62.75,15.083,343.0,01/07/2001,31/01/2023,UTC +01:00,Europe/Stockholm,NOAA,,,,,,,,,,,
02332199999,FAGERHULT,Sweden,,57.15,15.667,115.0,26/07/2016,26/03/2020,UTC +01:00,Europe/Stockholm,NOAA,,,,,,,,,,,
02333099999,LJUNGBY,Sweden,,56.833,13.917,155.0,01/01/1973,30/06/1977,UTC +01:00,Europe/Stockholm,NOAA,,,,,,,,,,,
02334099999,FINNEBY,Sweden,,62.033,15.467,261.0,01/01/1973,30/06/1977,UTC +01:00,Europe/Stockholm,NOAA,,,,,,,,,,,
02336099999,EDSBYN,Sweden,,61.383,15.833,163.0,01/07/1977,09/02/2004,UTC +01:00,Europe/Stockholm,NOAA,,,,,,,,,,,
02337099999,NORRHOG,Sweden,,62.267,15.667,320.0,01/01/1973,21/04/2016,UTC +01:00,Europe/Stockholm,NOAA,,,,,,,,,,,
02338099999,EDSBYN,Sweden,,61.367,15.717,185.0,01/08/1996,31/01/2023,UTC +01:00,Europe/Stockholm,NOAA,,,,,,,,,,,
02342099999,FRANSTA,Sweden,,62.517,16.183,105.0,01/07/1977,03/01/1996,UTC +01:00,Europe/Stockholm,NOAA,,,,,,,,,,,
02343099999,TORPSHAMMAR,Sweden,,62.5,16.283,100.0,01/01/1973,31/01/2023,UTC +01:00,Europe/Stockholm,NOAA,,,,,,,,,,,
02345199999,SJOBO,Sweden,,55.633,13.7,32.0,26/07/2016,25/03/2020,UTC +01:00,Europe/Stockholm,NOAA,,,,,,,,,,,
02346099999,DELSBO,Sweden,,61.783,16.55,90.0,28/09/1977,18/08/2003,UTC +01:00,Europe/Stockholm,NOAA,,,,,,,,,,,
02347099999,DELSBO,Sweden,,61.833,16.55,72.0,01/07/2001,31/01/2023,UTC +01:00,Europe/Stockholm,NOAA,,,,,,,,,,,
02349099999,SILLRE,Sweden,,62.767,16.733,205.0,01/07/2001,21/04/2016,UTC +01:00,Europe/Stockholm,NOAA,,,,,,,,,,,
02354099999,RASTA,Sweden,,62.433,17.35,80.0,01/07/2001,21/04/2016,UTC +01:00,Europe/Stockholm,NOAA,,,,,,,,,,,
02355099999,KUGGOREN,Sweden,,61.7,17.533,10.0,01/08/1996,31/01/2023,UTC +01:00,Europe/Stockholm,NOAA,,,,,,,,,,,
02360099999,SKELLEFTEA AIRPORT,Sweden,,64.633,21.083,46.0,10/01/1974,10/01/1974,UTC +01:00,Europe/Stockholm,NOAA,,,,,,,,,,,
02361099999,HARNOSAND,Sweden,,62.633,17.95,8.0,01/08/1929,10/09/2004,UTC +01:00,Europe/Stockholm,NOAA,,,,,,,,,,,
02364099999,ORNSKOLDSVIK ARPT,Sweden,,63.4,18.967,107.0,14/10/1973,13/02/1974,UTC +01:00,Europe/Stockholm,NOAA,,,,,,,,,,,
02365099999,SUNDSVALL-HARNOSAND,Sweden,,62.517,17.45,8.0,01/08/1976,17/04/2005,UTC +01:00,Europe/Stockholm,NOAA,,,,,,,,,,,
02366099999,SUNDSVALL HARNOSAND,Sweden,,62.528,17.444,4.9,01/07/1977,31/01/2023,UTC +01:00,Europe/Stockholm,NOAA,,,,,,,,,,,
02367099999,ALNON ISLAND,Sweden,,62.367,17.533,33.0,29/05/1984,31/12/2005,UTC +01:00,Europe/Stockholm,NOAA,,,,,,,,,,,
02368099999,BRAMON,Sweden,,62.217,17.75,18.0,21/05/1987,31/01/2023,UTC +01:00,Europe/Stockholm,NOAA,,,,,,,,,,,
02370099999,GAVLE/SANDVIKEN AFB,Sweden,,60.6,16.95,68.0,28/08/1973,23/01/1974,UTC +01:00,Europe/Stockholm,NOAA,,,,,,,,,,,
02371099999,BORLANGE (SWE-AFB),Sweden,,60.433,15.5,153.0,10/08/1973,13/12/1973,UTC +01:00,Europe/Stockholm,NOAA,,,,,,,,,,,
02375099999,ESKILSTUNA(SWE-AFBand,Sweden,,59.35,16.717,40.0,02/03/1980,13/03/2003,UTC +01:00,Europe/Stockholm,NOAA,,,,,,,,,,,
02376099999,SODERHAMN (SWE-AFB),Sweden,,61.267,17.1,36.0,01/07/1977,23/12/1997,UTC +01:00,Europe/Stockholm,NOAA,,,,,,,,,,,
02378099999,SODERHAMN FLYGPLATS,Sweden,,61.45,17.167,27.0,06/07/2004,31/12/2008,UTC +01:00,Europe/Stockholm,NOAA,,,,,,,,,,,
02381099999,NORRKOPING/KUNGSANG,Sweden,,58.583,16.25,5.0,28/07/1973,30/06/1977,UTC +01:00,Europe/Stockholm,NOAA,,,,,,,,,,,
02382099999,LUNGO,Sweden,,62.65,18.1,18.0,24/08/1973,31/01/2023,UTC +01:00,Europe/Stockholm,NOAA,,,,,,,,,,,
02398099999,KRISTIANSTAD/EVEROD,Sweden,,55.917,14.083,23.0,08/07/1973,06/11/1973,UTC +01:00,Europe/Stockholm,NOAA,,,,,,,,,,,
02400099999,OSTMARK,Sweden,,60.35,12.65,310.0,01/07/1977,31/12/1997,UTC +01:00,Europe/Stockholm,NOAA,,,,,,,,,,,
02402099999,SKILLINGMARK,Sweden,,59.867,11.967,130.0,14/10/1977,24/02/2004,UTC +01:00,Europe/Stockholm,NOAA,,,,,,,,,,,
02403099999,NAVEN,Sweden,,58.7,13.117,53.0,01/07/2001,31/01/2023,UTC +01:00,Europe/Stockholm,NOAA,,,,,,,,,,,
02404099999,ARVIKA,Sweden,,59.667,12.583,75.0,01/07/1977,24/02/2004,UTC +01:00,Europe/Stockholm,NOAA,,,,,,,,,,,
02406099999,BLOMSKOG,Sweden,,59.283,12.05,110.0,01/07/1977,24/04/2004,UTC +01:00,Europe/Stockholm,NOAA,,,,,,,,,,,
02407099999,MALUNG A,Sweden,,60.683,13.7,306.0,24/11/2001,31/01/2023,UTC +01:00,Europe/Stockholm,NOAA,,,,,,,,,,,
02408099999,BLOMSKOG,Sweden,,59.217,12.083,171.0,01/08/1996,31/01/2023,UTC +01:00,Europe/Stockholm,NOAA,,,,,,,,,,,
02409099999,AMAL,Sweden,,59.05,12.7,60.0,01/07/1977,24/04/2004,UTC +01:00,Europe/Stockholm,NOAA,,,,,,,,,,,
02410099999,MALUNG,Sweden,,60.683,13.7,308.0,01/07/1977,31/12/1997,UTC +01:00,Europe/Stockholm,NOAA,,,,,,,,,,,
02411099999,ARVIKA,Sweden,,59.676,12.639,72.2,01/07/2001,31/01/2023,UTC +01:00,Europe/Stockholm,NOAA,,,,,,,,,,,
02412099999,GUSTAVSFORS,Sweden,,60.15,13.8,190.0,01/01/1935,26/07/2005,UTC +01:00,Europe/Stockholm,NOAA,,,,,,,,,,,
02413099999,BRATTMON,Sweden,,60.75,12.767,205.0,01/07/2001,21/04/2016,UTC +01:00,Europe/Stockholm,NOAA,,,,,,,,,,,
02415099999,KARLSTAD SOL,Sweden,,59.367,13.467,46.0,31/07/1985,03/09/1997,UTC +01:00,Europe/Stockholm,NOAA,,,,,,,,,,,
02416199999,MOLKOM,Sweden,,59.617,13.733,93.0,24/09/2002,24/09/2002,UTC +01:00,Europe/Stockholm,NOAA,,,,,,,,,,,
02417099999,PALGRUNDEN,Sweden,,58.75,13.15,50.0,14/10/1978,31/01/2023,UTC +01:00,Europe/Stockholm,NOAA,,,,,,,,,,,
02418099999,KARLSTAD,Sweden,,59.445,13.337,107.3,01/01/1935,31/01/2023,UTC +01:00,Europe/Stockholm,NOAA,,,,,,,,,,,
02419099999,KARLSTAD SOL,Sweden,,59.367,13.467,46.0,20/05/1984,31/01/2023,UTC +01:00,Europe/Stockholm,NOAA,,,,,,,,,,,
02420099999,MOCKFJARD,Sweden,,60.517,14.95,193.0,17/11/2001,11/12/2004,UTC +01:00,Europe/Stockholm,NOAA,,,,,,,,,,,
02422099999,ASPHYTTAN,Sweden,,59.617,14.183,130.0,24/12/2003,24/01/2005,UTC +01:00,Europe/Stockholm,NOAA,,,,,,,,,,,
02423099999,SUNNE,Sweden,,59.867,13.117,109.0,01/07/2001,31/01/2023,UTC +01:00,Europe/Stockholm,NOAA,,,,,,,,,,,
02424099999,STALLDALEN,Sweden,,59.95,14.95,210.0,01/05/1996,31/12/1997,UTC +01:00,Europe/Stockholm,NOAA,,,,,,,,,,,
02426099999,GUSTAVSFORS,Sweden,,60.15,13.8,188.0,01/07/2001,31/01/2023,UTC +01:00,Europe/Stockholm,NOAA,,,,,,,,,,,
02428099999,ATORP,Sweden,,59.1,14.367,105.0,01/07/1977,01/08/2004,UTC +01:00,Europe/Stockholm,NOAA,,,,,,,,,,,
02428399999,OREBRO,Sweden,,59.224,15.038,57.3,27/08/1991,31/01/2023,UTC +01:00,Europe/Stockholm,NOAA,,,,,,,,,,,
02428499999,MORA,Sweden,,60.958,14.511,193.2,27/08/1991,31/01/2023,UTC +01:00,Europe/Stockholm,NOAA,,,,,,,,,,,
02428599999,TORSBY,Sweden,,60.158,12.991,119.8,26/02/2007,31/01/2023,UTC +01:00,Europe/Stockholm,NOAA,,,,,,,,,,,
02429099999,DAGLOSEN,Sweden,,59.667,14.183,133.0,01/07/2001,31/01/2023,UTC +01:00,Europe/Stockholm,NOAA,,,,,,,,,,,
02430099999,BACKA,Sweden,,60.917,15.117,227.0,11/07/2001,21/07/2002,UTC +01:00,Europe/Stockholm,NOAA,,,,,,,,,,,
02431099999,KLOTEN,Sweden,,59.867,15.25,289.0,11/08/2009,31/01/2023,UTC +01:00,Europe/Stockholm,NOAA,,,,,,,,,,,
02432099999,OREBRO,Sweden,,59.233,15.05,53.0,01/08/1996,31/01/2023,UTC +01:00,Europe/Stockholm,NOAA,,,,,,,,,,,
02433099999,FALUN,Sweden,,60.617,15.667,157.0,01/01/1935,04/07/2002,UTC +01:00,Europe/Stockholm,NOAA,,,,,,,,,,,
02435099999,BORLANGE,Sweden,,60.422,15.515,153.3,02/08/1979,31/01/2023,UTC +01:00,Europe/Stockholm,NOAA,,,,,,,,,,,
02436099999,OREBRO/EKEBY (DEAD),Sweden,,59.267,15.333,33.0,01/01/1935,31/08/1982,UTC +01:00,Europe/Stockholm,NOAA,,,,,,,,,,,
02437399999,ARBOGA,Sweden,,59.387,15.924,10.1,26/02/2007,27/02/2007,UTC +01:00,Europe/Stockholm,NOAA,,,,,,,,,,,
02439099999,FELLINGSBRO-FINNAKE,Sweden,,59.533,15.583,52.0,15/03/2002,01/11/2002,UTC +01:00,Europe/Stockholm,NOAA,,,,,,,,,,,
02440099999,AMOT,Sweden,,60.967,16.433,162.0,01/06/2001,31/01/2023,UTC +01:00,Europe/Stockholm,NOAA,,,,,,,,,,,
02441099999,MORA,Sweden,,60.967,14.5,197.0,01/07/2001,31/01/2023,UTC +01:00,Europe/Stockholm,NOAA,,,,,,,,,,,
02443099999,ENKOPING,Sweden,,59.65,17.117,26.0,03/08/1979,31/01/2023,UTC +01:00,Europe/Stockholm,NOAA,,,,,,,,,,,
02444099999,FOLKARNA,Sweden,,60.167,16.317,70.0,01/07/1977,06/05/1996,UTC +01:00,Europe/Stockholm,NOAA,,,,,,,,,,,
02446099999,VASTERAS,Sweden,,59.589,16.634,6.4,01/07/1977,31/01/2023,UTC +01:00,Europe/Stockholm,NOAA,,,,,,,,,,,
02448099999,DUNKER,Sweden,,59.2,16.917,33.0,20/06/2001,26/12/2004,UTC +01:00,Europe/Stockholm,NOAA,,,,,,,,,,,
02449099999,ESKILSTUNA A,Sweden,,59.383,16.45,15.0,01/07/2001,31/01/2023,UTC +01:00,Europe/Stockholm,NOAA,,,,,,,,,,,
02450099999,EGGEGRUND,Sweden,,60.733,17.567,4.0,01/09/1997,31/01/2023,UTC +01:00,Europe/Stockholm,NOAA,,,,,,,,,,,
02451099999,VASTRA BANKEN (AUT),Sweden,,60.883,17.917,22.0,11/12/1977,13/12/2002,UTC +01:00,Europe/Stockholm,NOAA,,,,,,,,,,,
02452099999,KILSBERGEN-SUTTARBODA,Sweden,,59.3,14.9,219.0,01/07/2001,31/01/2023,UTC +01:00,Europe/Stockholm,NOAA,,,,,,,,,,,
02453099999,GAVLE/SANDVIKEN AIR FORCE BAS,Sweden,,60.717,17.167,16.0,01/05/1996,31/01/2023,UTC +01:00,Europe/Stockholm,NOAA,,,,,,,,,,,
02454099999,UTVALNAS,Sweden,,60.75,17.35,4.0,02/01/1978,15/06/1978,UTC +01:00,Europe/Stockholm,NOAA,,,,,,,,,,,
02456099999,FILM,Sweden,,60.233,17.9,35.0,01/02/1996,31/01/2023,UTC +01:00,Europe/Stockholm,NOAA,,,,,,,,,,,
02458099999,UPPSALA,Sweden,,59.897,17.589,20.7,01/01/1935,31/01/2023,UTC +01:00,Europe/Stockholm,NOAA,,,,,,,,,,,
02460099999,ARLANDA,Sweden,,59.652,17.919,41.8,30/06/1977,31/01/2023,UTC +01:00,Europe/Stockholm,NOAA,,,,,,,,,,,
02462099999,UPPSALA UNIVERSITY,Sweden,,59.867,17.633,13.0,08/11/2006,31/01/2023,UTC +01:00,Europe/Stockholm,NOAA,,,,,,,,,,,
02464099999,BROMMA,Sweden,,59.354,17.942,14.3,01/01/1931,31/01/2023,UTC +01:00,Europe/Stockholm,NOAA,,,,,,,,,,,
02465099999,STOCKHOLM/BROMMA UA,Sweden,,59.35,17.967,22.0,04/10/1980,18/12/2002,UTC +01:00,Europe/Stockholm,NOAA,,,,,,,,,,,
02468099999,STORA SPANSBERGET,Sweden,,60.383,15.133,493.0,01/07/2001,31/01/2023,UTC +01:00,Europe/Stockholm,NOAA,,,,,,,,,,,
02469099999,TULLINGE,Sweden,,59.183,17.917,54.0,01/06/2001,31/01/2023,UTC +01:00,Europe/Stockholm,NOAA,,,,,,,,,,,
02470099999,ORSKAR (LGT-H),Sweden,,60.533,18.383,5.0,25/08/2001,01/06/2003,UTC +01:00,Europe/Stockholm,NOAA,,,,,,,,,,,
02471099999,GRUNDKALLEN,Sweden,,60.5,18.867,23.0,01/07/1977,12/10/2003,UTC +01:00,Europe/Stockholm,NOAA,,,,,,,,,,,
02472099999,SKEPPMORA,Sweden,,60.117,15.117,240.0,01/07/2001,21/04/2016,UTC +01:00,Europe/Stockholm,NOAA,,,,,,,,,,,
02473099999,UNDERSTEN (LGT-H),Sweden,,60.283,18.917,40.0,26/01/1989,01/03/1989,UTC +01:00,Europe/Stockholm,NOAA,,,,,,,,,,,
02474099999,SINGO ISLAND,Sweden,,60.167,18.75,14.0,01/07/1977,30/04/2004,UTC +01:00,Europe/Stockholm,NOAA,,,,,,,,,,,
02476099999,FLODA,Sweden,,59.05,16.4,33.0,01/08/1996,31/01/2023,UTC +01:00,Europe/Stockholm,NOAA,,,,,,,,,,,
02480099999,NORRTALJE/VASBY,Sweden,,59.85,18.733,10.0,04/08/2001,22/05/2005,UTC +01:00,Europe/Stockholm,NOAA,,,,,,,,,,,
02481099999,SALA,Sweden,,59.917,16.683,58.0,01/07/2001,31/01/2023,UTC +01:00,Europe/Stockholm,NOAA,,,,,,,,,,,
02482099999,KERSTINBO,Sweden,,60.267,16.983,57.0,01/07/2001,31/01/2023,UTC +01:00,Europe/Stockholm,NOAA,,,,,,,,,,,
02483099999,STOCKHOLM-SOL,Sweden,,59.35,18.067,30.0,01/09/1997,31/01/2023,UTC +01:00,Europe/Stockholm,NOAA,,,,,,,,,,,
02484099999,STOCKHOLM/OBSERVATORIET,Sweden,,59.35,18.067,44.0,01/06/2001,31/01/2023,UTC +01:00,Europe/Stockholm,NOAA,,,,,,,,,,,
02485099999,STOCKHOLM,Sweden,,59.35,18.067,52.0,21/05/1984,14/12/1997,UTC +01:00,Europe/Stockholm,NOAA,,,,,,,,,,,
02485399999,SKAVSTA,Sweden,,58.789,16.912,42.7,27/08/1991,31/01/2023,UTC +01:00,Europe/Stockholm,NOAA,,,,,,,,,,,
02486099999,ADELSO,Sweden,,59.367,17.517,6.0,01/07/2001,31/01/2023,UTC +01:00,Europe/Stockholm,NOAA,,,,,,,,,,,
02487099999,SKARPO A,Sweden,,59.35,18.733,22.0,01/09/1997,31/01/2023,UTC +01:00,Europe/Stockholm,NOAA,,,,,,,,,,,
02488099999,ORSKAR,Sweden,,60.533,18.383,9.0,01/08/1996,31/01/2023,UTC +01:00,Europe/Stockholm,NOAA,,,,,,,,,,,
02489099999,BERGA,Sweden,,59.067,18.117,3.0,01/06/2001,31/01/2023,UTC +01:00,Europe/Stockholm,NOAA,,,,,,,,,,,
02490099999,SVANBERGA,Sweden,,59.833,18.633,16.0,01/07/2001,31/01/2023,UTC +01:00,Europe/Stockholm,NOAA,,,,,,,,,,,
02492099999,SVENSKA HOGARNA-SOL,Sweden,,59.45,19.5,10.0,28/06/2021,31/01/2023,UTC +01:00,Europe/Stockholm,NOAA,,,,,,,,,,,
02493099999,SODERARM,Sweden,,59.75,19.417,15.0,01/07/2001,31/01/2023,UTC +01:00,Europe/Stockholm,NOAA,,,,,,,,,,,
02494099999,BJUROKLUBB (LGT-H),Sweden,,64.483,21.583,36.0,30/09/2001,03/03/2006,UTC +01:00,Europe/Stockholm,NOAA,,,,,,,,,,,
02495099999,SVENSKA BJORN (AUT),Sweden,,59.55,20.017,24.0,03/03/1978,11/01/2005,UTC +01:00,Etc/GMT-1,NOAA,,,,,,,,,,,
02496099999,SVENSKA HOGARNA,Sweden,,59.45,19.5,12.0,01/07/1977,01/06/2021,UTC +01:00,Europe/Stockholm,NOAA,,,,,,,,,,,
02498099999,SVENSKA HOGARNA A,Sweden,,59.45,19.5,12.0,02/06/2010,31/01/2023,UTC +01:00,Europe/Stockholm,NOAA,,,,,,,,,,,
02499099999,ALMAGRUNDET,Sweden,,59.15,19.133,25.0,01/09/1997,02/09/1997,UTC +01:00,Europe/Stockholm,NOAA,,,,,,,,,,,
02500099999,NORDKOSTER,Sweden,,58.9,11.0,35.0,01/02/1996,31/01/2023,UTC +01:00,Europe/Stockholm,NOAA,,,,,,,,,,,
02501099999,VADEROARNA,Sweden,,58.583,11.067,24.0,04/08/1977,31/01/2023,UTC +01:00,Europe/Stockholm,NOAA,,,,,,,,,,,
02502099999,DALS-ED,Sweden,,58.9,12.033,152.0,05/02/2002,25/04/2004,UTC +01:00,Europe/Stockholm,NOAA,,,,,,,,,,,
02503099999,NORDKOSTER-SOL,Sweden,,58.9,11.0,33.0,28/06/2021,31/01/2023,UTC +01:00,Europe/Stockholm,NOAA,,,,,,,,,,,
02504099999,SVARTEBORG,Sweden,,58.567,11.55,70.0,01/07/1977,25/04/2004,UTC +01:00,Europe/Stockholm,NOAA,,,,,,,,,,,
02505099999,MASESKAR,Sweden,,58.1,11.333,16.0,01/08/1996,31/01/2023,UTC +01:00,Europe/Stockholm,NOAA,,,,,,,,,,,
02507099999,HUD,Sweden,,58.667,11.417,80.0,01/07/2001,21/04/2016,UTC +01:00,Europe/Stockholm,NOAA,,,,,,,,,,,
02508099999,MASESKAR (LGT-H),Sweden,,58.1,11.35,14.0,01/01/1973,01/10/1997,UTC +01:00,Europe/Stockholm,NOAA,,,,,,,,,,,
02510099999,LJUNGSKILE,Sweden,,58.217,11.933,70.0,01/01/1935,25/09/2005,UTC +01:00,Europe/Stockholm,NOAA,,,,,,,,,,,
02510399999,TROLLHATTAN VANERSBORG,Sweden,,58.318,12.345,41.8,27/08/1991,31/01/2023,UTC +01:00,Europe/Stockholm,NOAA,,,,,,,,,,,
02510599999,LIDKOPING,Sweden,,58.466,13.174,61.0,16/10/2007,30/08/2012,UTC +01:00,Europe/Stockholm,NOAA,,,,,,,,,,,
02511099999,FLADEN,Sweden,,57.217,11.833,10.0,02/11/2004,02/11/2004,UTC +01:00,Europe/Stockholm,NOAA,,,,,,,,,,,
02512099999,SAVE,Sweden,,57.775,11.87,18.0,01/01/1935,31/01/2023,UTC +01:00,Europe/Stockholm,NOAA,,,,,,,,,,,
02513099999,GOTEBORG,Sweden,,57.717,12.0,2.0,01/05/1996,31/01/2023,UTC +01:00,Europe/Stockholm,NOAA,,,,,,,,,,,
02514099999,ARVIDSJAUR,Sweden,,65.59,19.282,379.5,01/07/1977,31/01/2023,UTC +01:00,Europe/Stockholm,NOAA,,,,,,,,,,,
02515099999,TORPABRON,Sweden,,58.2,12.15,20.0,01/06/2001,21/04/2016,UTC +01:00,Europe/Stockholm,NOAA,,,,,,,,,,,
02516099999,VINGA,Sweden,,57.633,11.617,19.0,01/09/1996,31/01/2023,UTC +01:00,Europe/Stockholm,NOAA,,,,,,,,,,,
02517099999,TRUBADUREN,Sweden,,57.6,11.633,26.0,23/03/1978,16/10/1997,UTC +01:00,Europe/Stockholm,NOAA,,,,,,,,,,,
02518099999,NIDINGEN,Sweden,,57.3,11.9,2.0,01/01/1973,31/01/2023,UTC +01:00,Europe/Stockholm,NOAA,,,,,,,,,,,
02519099999,RINGHALS (AUT),Sweden,,57.267,12.117,12.0,25/03/2002,25/05/2004,UTC +01:00,Europe/Stockholm,NOAA,,,,,,,,,,,
02520099999,SATENAS,Sweden,,58.426,12.714,55.2,01/07/1977,31/01/2023,UTC +01:00,Europe/Stockholm,NOAA,,,,,,,,,,,
02521099999,BERGARUD,Sweden,,58.6,12.417,55.0,01/07/1977,21/04/2016,UTC +01:00,Europe/Stockholm,NOAA,,,,,,,,,,,
02523099999,ABRAUR,Sweden,,65.983,18.933,374.0,01/01/1973,25/03/2005,UTC +01:00,Europe/Stockholm,NOAA,,,,,,,,,,,
02524099999,MOLLA,Sweden,,57.933,13.067,190.0,01/01/1973,31/03/2006,UTC +01:00,Europe/Stockholm,NOAA,,,,,,,,,,,
02526099999,LANDVETTER,Sweden,,57.663,12.28,154.2,03/10/1977,31/01/2023,UTC +01:00,Europe/Stockholm,NOAA,,,,,,,,,,,
02527099999,GOTEBORG/LANDVETTER,Sweden,,57.667,12.291,164.0,19/12/1999,19/12/1999,UTC +01:00,Europe/Stockholm,NOAA,,,,,,,,,,,
02528099999,TANDADALEN,Sweden,,61.167,13.017,830.0,08/07/1977,14/09/2003,UTC +01:00,Europe/Stockholm,NOAA,,,,,,,,,,,
02529099999,VARBERG           and,Sweden,,57.117,12.267,0.0,07/07/1984,24/10/1984,UTC +01:00,Europe/Stockholm,NOAA,,,,,,,,,,,
02530099999,NASHUVUD,Sweden,,58.9,13.25,50.0,01/07/1977,27/01/1996,UTC +01:00,Europe/Stockholm,NOAA,,,,,,,,,,,
02531099999,GOTEBORG-SOL,Sweden,,57.683,11.983,94.0,28/06/2021,31/01/2023,UTC +01:00,Europe/Stockholm,NOAA,,,,,,,,,,,
02533099999,SKARA,Sweden,,58.383,13.25,120.0,01/01/1935,11/09/2003,UTC +01:00,Europe/Stockholm,NOAA,,,,,,,,,,,
02535099999,SKOVDE,Sweden,,58.456,13.973,98.8,27/08/1991,31/03/2022,UTC +01:00,Europe/Stockholm,NOAA,,,,,,,,,,,
02536099999,RANGEDALA,Sweden,,57.783,13.167,299.0,01/07/1977,31/01/2023,UTC +01:00,Europe/Stockholm,NOAA,,,,,,,,,,,
02536199999,DALSJOFORS,Sweden,,57.717,13.083,259.0,26/07/2016,26/03/2020,UTC +01:00,Europe/Stockholm,NOAA,,,,,,,,,,,
02538099999,HESTRA,Sweden,,57.4,13.533,285.0,21/12/2003,25/03/2020,UTC +01:00,Europe/Stockholm,NOAA,,,,,,,,,,,
02539099999,ULLARED,Sweden,,57.117,12.783,122.0,01/07/2001,31/01/2023,UTC +01:00,Europe/Stockholm,NOAA,,,,,,,,,,,
02540099999,KROPPEFJALL-GRANAN,Sweden,,58.6,12.2,174.0,01/07/2001,31/01/2023,UTC +01:00,Europe/Stockholm,NOAA,,,,,,,,,,,
02541099999,SNAVLUNDA,Sweden,,58.967,14.9,144.0,01/07/1977,02/05/2003,UTC +01:00,Europe/Stockholm,NOAA,,,,,,,,,,,
02542099999,HALLUM,Sweden,,58.317,13.033,71.0,01/07/2001,31/01/2023,UTC +01:00,Europe/Stockholm,NOAA,,,,,,,,,,,
02543099999,FAGRE,Sweden,,58.65,14.133,97.0,21/06/2003,21/06/2003,UTC +01:00,Europe/Stockholm,NOAA,,,,,,,,,,,
02544099999,KARLSBORG,Sweden,,58.517,14.517,94.0,01/07/1977,31/01/2023,UTC +01:00,Europe/Stockholm,NOAA,,,,,,,,,,,
02545099999,AXSTAL,Sweden,,58.567,14.567,93.0,04/11/2007,31/01/2023,UTC +01:00,Europe/Stockholm,NOAA,,,,,,,,,,,
02546099999,GARDSJO,Sweden,,58.883,14.383,212.0,01/07/2001,31/01/2023,UTC +01:00,Europe/Stockholm,NOAA,,,,,,,,,,,
02548099999,VISINGSO,Sweden,,58.1,14.417,95.0,01/06/2001,31/01/2023,UTC +01:00,Europe/Stockholm,NOAA,,,,,,,,,,,
02549099999,TOMTABACKEN,Sweden,,57.5,14.467,356.0,01/07/2001,31/01/2023,UTC +01:00,Europe/Stockholm,NOAA,,,,,,,,,,,
02550099999,JONKOPING,Sweden,,57.758,14.069,225.9,01/01/1931,31/01/2023,UTC +01:00,Europe/Stockholm,NOAA,,,,,,,,,,,
02552099999,MALEXANDER,Sweden,,58.067,15.233,197.0,01/07/2001,31/01/2023,UTC +01:00,Europe/Stockholm,NOAA,,,,,,,,,,,
02553099999,KYMBO,Sweden,,58.083,13.783,220.0,01/07/2001,21/04/2016,UTC +01:00,Europe/Stockholm,NOAA,,,,,,,,,,,
02553199999,HABO,Sweden,,57.917,14.083,176.0,26/02/2007,26/02/2007,UTC +01:00,Europe/Stockholm,NOAA,,,,,,,,,,,
02554099999,KETTSTAKA,Sweden,,58.717,15.033,225.0,01/07/2001,31/01/2023,UTC +01:00,Europe/Stockholm,NOAA,,,,,,,,,,,
02555099999,NASSJO,Sweden,,57.65,14.7,305.0,01/07/1977,02/01/2003,UTC +01:00,Europe/Stockholm,NOAA,,,,,,,,,,,
02556099999,HAGSHULT,Sweden,,57.292,14.137,169.5,01/07/1977,31/01/2023,UTC +01:00,Europe/Stockholm,NOAA,,,,,,,,,,,
02557099999,HORN,Sweden,,57.883,15.867,91.0,01/07/2001,31/01/2023,UTC +01:00,Europe/Stockholm,NOAA,,,,,,,,,,,
02558099999,KOLMARDEN-STROMSFORS,Sweden,,58.683,16.317,155.0,01/07/2001,31/01/2023,UTC +01:00,Europe/Stockholm,NOAA,,,,,,,,,,,
02559099999,GLADHAMMAR,Sweden,,57.7,16.467,31.0,01/07/2001,31/01/2023,UTC +01:00,Europe/Stockholm,NOAA,,,,,,,,,,,
02560099999,ZINKGRUVAN,Sweden,,58.8,15.117,215.0,20/06/2001,20/11/2006,UTC +01:00,Europe/Stockholm,NOAA,,,,,,,,,,,
02561099999,KVARN,Sweden,,58.65,15.433,10.0,03/05/2010,31/01/2023,UTC +01:00,Europe/Stockholm,NOAA,,,,,,,,,,,
02562099999,MALMEN,Sweden,,58.402,15.526,93.9,01/07/1977,31/01/2023,UTC +01:00,Europe/Stockholm,NOAA,,,,,,,,,,,
02562599999,SAAB,Sweden,,58.406,15.681,52.4,12/10/1995,31/01/2023,UTC +01:00,Europe/Stockholm,NOAA,,,,,,,,,,,
02563099999,HARSTENA,Sweden,,58.25,17.017,18.0,01/07/2001,31/01/2023,UTC +01:00,Europe/Stockholm,NOAA,,,,,,,,,,,
02563599999,ANGELHOLM,Sweden,,56.283,12.833,47.0,10/08/2004,31/01/2023,UTC +01:00,Europe/Stockholm,NOAA,,,,,,,,,,,
02564099999,MALEXANDER,Sweden,,58.067,15.233,200.0,01/07/1977,11/11/1997,UTC +01:00,Europe/Stockholm,NOAA,,,,,,,,,,,
02565099999,HULTSFRED,Sweden,,57.526,15.823,111.6,06/08/1979,31/01/2023,UTC +01:00,Europe/Stockholm,NOAA,,,,,,,,,,,
02566099999,MALILLA,Sweden,,57.4,15.817,98.0,01/01/1973,31/12/1997,UTC +01:00,Europe/Stockholm,NOAA,,,,,,,,,,,
02567099999,LANDSORT,Sweden,,58.75,17.867,20.0,01/08/1996,31/01/2023,UTC +01:00,Europe/Stockholm,NOAA,,,,,,,,,,,
02568099999,ALLGUNNEN,Sweden,,57.067,15.967,115.0,07/07/1977,08/06/2001,UTC +01:00,Europe/Stockholm,NOAA,,,,,,,,,,,
02570099999,NORRKOPING/BRAVALLA,Sweden,,58.617,16.117,33.0,01/07/1977,29/01/2015,UTC +01:00,Europe/Stockholm,NOAA,,,,,,,,,,,
02571099999,KUNGSANGEN,Sweden,,58.586,16.251,9.8,01/07/1977,31/01/2023,UTC +01:00,Europe/Stockholm,NOAA,,,,,,,,,,,
02572099999,NYKOPING/SKAVST AFB,Sweden,,58.783,16.917,42.0,01/07/1977,03/10/1980,UTC +01:00,Europe/Stockholm,NOAA,,,,,,,,,,,
02573099999,OLANDS NORRA UDDE-SOL,Sweden,,57.367,17.1,2.0,28/06/2021,31/01/2023,UTC +01:00,Europe/Stockholm,NOAA,,,,,,,,,,,
02574099999,NORRKOPING,Sweden,,58.583,16.15,41.6,01/09/1997,31/01/2023,UTC +01:00,Europe/Stockholm,NOAA,,,,,,,,,,,
02575099999,OLANDS NORRA UDDE,Sweden,,57.367,17.1,4.0,01/08/1996,31/01/2023,UTC +01:00,Europe/Stockholm,NOAA,,,,,,,,,,,
02576099999,GLADHAMMAR,Sweden,,57.717,16.467,35.0,01/07/1977,02/11/2002,UTC +01:00,Europe/Stockholm,NOAA,,,,,,,,,,,
02580099999,STABBO (AUT),Sweden,,58.967,18.45,10.0,14/03/1987,17/06/2016,UTC +01:00,Europe/Stockholm,NOAA,,,,,,,,,,,
02581099999,UTO ISLAND,Sweden,,58.95,18.267,76.0,22/02/2002,15/08/2003,UTC +01:00,Europe/Stockholm,NOAA,,,,,,,,,,,
02582099999,LANDSORT (LGT-H),Sweden,,58.75,17.867,32.0,01/01/1935,25/10/2006,UTC +01:00,Europe/Stockholm,NOAA,,,,,,,,,,,
02583099999,GUSTAF DALEN,Sweden,,58.6,17.467,3.0,08/07/1977,26/11/2008,UTC +01:00,Europe/Stockholm,NOAA,,,,,,,,,,,
02584099999,GOTSKA SANDON,Sweden,,58.4,19.2,12.0,01/01/1935,31/12/1997,UTC +01:00,Europe/Stockholm,NOAA,,,,,,,,,,,
02586099999,HARSTENA,Sweden,,58.25,17.017,7.0,01/07/1977,31/12/1997,UTC +01:00,Europe/Stockholm,NOAA,,,,,,,,,,,
02587099999,FAROSUND-AR,Sweden,,57.917,18.95,13.0,01/07/2001,31/01/2023,UTC +01:00,Europe/Stockholm,NOAA,,,,,,,,,,,
02588099999,FARO ISLAND,Sweden,,57.9,19.167,8.0,01/07/1977,13/05/2002,UTC +01:00,Europe/Stockholm,NOAA,,,,,,,,,,,
02589099999,GOTSKA SANDON,Sweden,,58.4,19.2,17.0,01/07/2001,31/01/2023,UTC +01:00,Europe/Stockholm,NOAA,,,,,,,,,,,
02590099999,VISBY,Sweden,,57.663,18.346,50.0,01/01/1931,31/01/2023,UTC +01:00,Europe/Stockholm,NOAA,,,,,,,,,,,
02591099999,VISBY AEROLOGISKA STATION,Sweden,,57.65,18.35,47.0,15/03/2002,26/03/2020,UTC +01:00,Europe/Stockholm,NOAA,,,,,,,,,,,
02592099999,OLANDS NORRA UDDE,Sweden,,57.367,17.1,4.0,01/01/1935,16/05/2002,UTC +01:00,Europe/Stockholm,NOAA,,,,,,,,,,,
02593199999,VASTERGARN,Sweden,,57.433,18.15,2.0,26/07/2016,25/11/2018,UTC +01:00,Europe/Stockholm,NOAA,,,,,,,,,,,
02594099999,STORA KARLSO(LGT-H),Sweden,,57.3,17.967,40.0,29/06/2001,12/07/2004,UTC +01:00,Europe/Stockholm,NOAA,,,,,,,,,,,
02595099999,ROMA,Sweden,,57.55,18.433,35.0,01/06/2001,21/04/2016,UTC +01:00,Europe/Stockholm,NOAA,,,,,,,,,,,
02596099999,HERRVIK,Sweden,,57.417,18.917,5.0,16/05/2002,25/03/2005,UTC +01:00,Europe/Stockholm,NOAA,,,,,,,,,,,
02597099999,KAJAANI,Finland,,64.283,27.683,135.9,07/07/2002,20/08/2003,UTC +02:00,Europe/Helsinki,NOAA,,,,,,,,,,,
02598099999,OSTERGARNSHOLM,Sweden,,57.433,18.983,5.0,01/07/2001,31/01/2023,UTC +01:00,Europe/Stockholm,NOAA,,,,,,,,,,,
02599099999,NASUDDEN,Sweden,,57.067,18.217,5.0,01/09/1997,02/09/1997,UTC +01:00,Europe/Stockholm,NOAA,,,,,,,,,,,
02600099999,GLOMMEN,Sweden,,56.933,12.367,7.0,26/06/2001,27/07/2005,UTC +01:00,Europe/Stockholm,NOAA,,,,,,,,,,,
02602099999,HALLANDSASEN,Sweden,,56.4,12.95,140.0,01/07/2001,21/04/2016,UTC +01:00,Europe/Stockholm,NOAA,,,,,,,,,,,
02603099999,BROEN,Sweden,,56.867,12.667,47.0,01/07/2001,26/03/2020,UTC +01:00,Europe/Stockholm,NOAA,,,,,,,,,,,
02604099999,HALMSTAD,Sweden,,56.691,12.82,30.8,01/07/1977,31/01/2023,UTC +01:00,Europe/Stockholm,NOAA,,,,,,,,,,,
02605099999,HALLANDS VADERO,Sweden,,56.45,12.55,10.0,01/08/1996,31/01/2023,UTC +01:00,Europe/Stockholm,NOAA,,,,,,,,,,,
02606099999,KULLEN (LGT-H),Sweden,,56.3,12.45,72.0,01/07/1977,20/09/1997,UTC +01:00,Europe/Stockholm,NOAA,,,,,,,,,,,
02607099999,ANGELHOLM/BARKAKRA,Sweden,,56.283,12.083,18.0,01/07/1977,31/12/1997,UTC +01:00,Etc/GMT-1,NOAA,,,,,,,,,,,
02609099999,RYNGE,Sweden,,55.467,13.667,50.0,01/07/2001,21/04/2016,UTC +01:00,Europe/Stockholm,NOAA,,,,,,,,,,,
02610099999,ORJA (AUT),Sweden,,55.867,12.867,11.0,09/10/1985,08/11/2005,UTC +01:00,Europe/Stockholm,NOAA,,,,,,,,,,,
02611099999,HELSINGBORG,Sweden,,56.033,12.767,44.0,18/06/1984,31/01/2023,UTC +01:00,Europe/Stockholm,NOAA,,,,,,,,,,,
02614099999,OSKARSGRUNDET,Sweden,,55.6,12.85,10.0,15/05/1984,31/12/1997,UTC +01:00,Europe/Copenhagen,NOAA,,,,,,,,,,,
02615099999,FALSTERBO A,Sweden,,55.383,12.817,5.0,13/07/2009,31/01/2023,UTC +01:00,Europe/Stockholm,NOAA,,,,,,,,,,,
02615199999,KLAGSHAMN (PORT),Sweden,,55.517,12.917,2.0,26/08/2002,26/08/2002,UTC +01:00,Europe/Stockholm,NOAA,,,,,,,,,,,
02616099999,FALSTERBO,Sweden,,55.383,12.817,5.0,01/07/1977,01/06/2021,UTC +01:00,Europe/Stockholm,NOAA,,,,,,,,,,,
02617099999,MAGLARP (AUT),Sweden,,55.383,13.067,8.0,26/03/2002,26/06/2004,UTC +01:00,Europe/Stockholm,NOAA,,,,,,,,,,,
02618099999,TORUP,Sweden,,56.95,13.067,130.0,29/02/2008,31/01/2023,UTC +01:00,Europe/Stockholm,NOAA,,,,,,,,,,,
02620099999,TORUP,Sweden,,56.967,13.067,87.0,01/02/1996,31/12/1997,UTC +01:00,Europe/Stockholm,NOAA,,,,,,,,,,,
